title,addr1,stored_lat,stored_lon,kakao_lat,kakao_lon,dist_km,kakao_addr,issue
남산순환나들길,서울특별시 중구 남산공원길 609 (예장동),37.5549112997,126.9866844934,37.55116104550315,126.99088780303528,0.558,서울 중구 예장동,좌표 불일치 (0.56km)
그루브하우스,서울특별시 동대문구 서울시립대로25길 10 (전농동),37.5827620188,127.0522138438,,,,,장소 미발견 (폐업/미등록 가능성)
북서울꿈의숲,서울특별시 강북구 월계로 173 (번동),37.619724251,127.0445440464,37.62360650548208,127.04157251496886,0.505,서울 강북구 번동 90,좌표 불일치 (0.50km)
리틀포레한강,서울특별시 성동구 왕십리로8길 19-5 (성수동1가),37.5463689287,127.0468348118,,,,,장소 미발견 (폐업/미등록 가능성)
레스케이프 호텔(L’Escape Hotel),서울특별시 중구 퇴계로 67,37.5597189467,126.9795572285,,,,,장소 미발견 (폐업/미등록 가능성)
서울로 7017,서울특별시 중구 한강대로 405,37.5545193912,126.9706609645,37.557109027019116,126.97541367376364,0.508,서울 중구 남대문로5가 84-15,좌표 불일치 (0.51km)
서해금빛열차,서울특별시 용산구 한강대로23길 55 (한강로3가),37.5298249324,126.9647566449,,,,,장소 미발견 (폐업/미등록 가능성)
소담스테이,서울특별시 마포구 마포대로14길 12-17,37.5480393261,126.9559902624,37.612680461046,127.028666114611,9.627,서울 강북구 미아동 465-47,좌표 오류 - 실제위치 9.6km 이격
온수도시자연공원(잣절공원),서울특별시 구로구 고척로21나길 103 (개봉동),37.5020481486,126.8397382631,,,,,장소 미발견 (폐업/미등록 가능성)
준하우스3,서울특별시 마포구 월드컵북로6길 84 (동교동),37.5600345566,126.9226346304,,,,,장소 미발견 (폐업/미등록 가능성)
카페우리,서울특별시 은평구 녹번로1길 13 (녹번동),37.6047933126,126.9266024479,37.5585154702407,126.829361596064,9.995,서울 강서구 마곡동 799-11,좌표 오류 - 실제위치 10.0km 이격
효자스테이,서울특별시 종로구 효자로7길 7-5,37.5787999537,126.9734877974,,,,,장소 미발견 (폐업/미등록 가능성)
계양산 둘레길,인천광역시 계양구 계양산로 101 (계산동),37.548071351,126.7270444752,37.5468986724227,126.720129641747,0.623,인천 계양구 계산동 897,좌표 불일치 (0.62km)
Stay Vibe,서울특별시 종로구 평창1길 7-4 (평창동),37.6052328134,126.9635768407,,,,,장소 미발견 (폐업/미등록 가능성)
강화 원도심 스토리워크,인천광역시 강화군 강화읍 관청길27번길 10,37.7484743032,126.4861109075,,,,,장소 미발견 (폐업/미등록 가능성)
[북악하늘길 스카이웨이] 하늘한마당~하늘마루,서울특별시 성북구 성북동,37.569354427,127.0068155826,,,,,장소 미발견 (폐업/미등록 가능성)
달빛축제공원,인천광역시 연수구 송도동 1,37.3953434658,126.6597659732,37.3910553896149,126.652081945451,0.83,인천 연수구 송도동 3-33,좌표 불일치 (0.83km)
국가유산 방문 캠페인 인천공항 홍보관,인천광역시 중구 공항로 271 (운서동),37.4477031811,126.4521751331,,,,,장소 미발견 (폐업/미등록 가능성)
송도 센트럴파크,인천광역시 연수구 컨벤시아대로 160,37.3903993102,126.6435981392,37.393063959939425,126.63862968940775,0.53,인천 연수구 송도동 24-5,좌표 불일치 (0.53km)
보문산 행복 숲 둘레길,대전광역시 중구 대사동,36.3093154326,127.4222602576,,,,,장소 미발견 (폐업/미등록 가능성)
테미근린공원,대전광역시 중구 보문로199번길 37-36,36.3192226254,127.4218489142,,,,,장소 미발견 (폐업/미등록 가능성)
앞산 케이블카(앞산 전망대),대구광역시 남구 앞산순환로 574-114 (봉덕동),35.8244027709,128.587164671,35.82465846202498,128.57948589622362,0.693,대구 남구 대명동 산 227-1,좌표 불일치 (0.69km)
"현풍장 (5, 10일)",대구광역시 달성군 현풍읍 비슬로130길 53-1,35.6947231113,128.4421643471,,,,,장소 미발견 (폐업/미등록 가능성)
간월산,울산광역시 울주군 상북면 간월산길 614,35.5561610255,129.0480650268,35.552124628749574,129.0401976354984,0.841,울산 울주군 상북면 등억알프스리 산 220-3,좌표 불일치 (0.84km)
원시학,부산광역시 해운대구 우동1로20번가길 31 (우동),35.166279066,129.1583939802,,,,,장소 미발견 (폐업/미등록 가능성)
캔버스 블랙,부산광역시 해운대구 해운대해변로197번길 14,35.1594102909,129.1530057486,,,,,장소 미발견 (폐업/미등록 가능성)
간절곶 소망길,울산광역시 울주군 서생면 나사리,35.3546337414,129.3492110511,35.35479890863927,129.3428788337695,0.575,울산 울주군 서생면 나사리 431-1,좌표 불일치 (0.57km)
강동몽돌해변 (정자해변),울산광역시 북구 산하동,35.6278381472,129.4423980082,35.6359750360025,129.442054675606,0.905,울산 북구 산하동 957,좌표 불일치 (0.91km)
대운산,울산광역시 울주군 온양읍 대운상대길 225-92,35.3901665277,129.2361865678,35.394708872005104,129.24351144906396,0.834,울산 울주군 온양읍 운화리 산 155-3,좌표 불일치 (0.83km)
고헌산(울산),울산광역시 울주군 언양읍,35.6396001019,129.1150012809,35.641425205511894,129.0847117327677,2.745,울산 울주군 상북면 궁근정리 산 9,좌표 오류 - 실제위치 2.7km 이격
내원암 계곡,울산광역시 울주군 온양읍 대운상대길 382,35.3991681983,129.2310145451,35.3924105610663,129.242811711648,1.307,울산 울주군 온양읍 운화리,좌표 오류 - 실제위치 1.3km 이격
석남사계곡,울산광역시 울주군 상북면 이천리 642-7,35.5331267827,129.0091496267,35.6206944109244,129.025152676997,9.844,울산 울주군 상북면 덕현리,좌표 오류 - 실제위치 9.8km 이격
천전리각석계곡(울산),울산광역시 울주군 두동면 천전각석길,35.6096544965,129.1695751274,35.6145404336545,129.175281905167,0.749,울산 울주군 두동면 천전리,좌표 불일치 (0.75km)
태화강 국가정원십리대숲,울산광역시 중구 태화동 667 태화강 국가정원 안내센터,35.5487747405,129.2911995498,35.54564016727036,129.296551316054,0.597,울산 중구 태화동 636,좌표 불일치 (0.60km)
태화강 국가정원,울산광역시 중구 샛강남길 5 (태화동),35.5487747405,129.2911995498,35.5480699197143,129.297046216516,0.535,울산 중구 태화동 107,좌표 불일치 (0.53km)
홍류폭포,울산광역시 울주군 상북면 명촌길천로 33-6,35.5596834909,129.0823702624,35.5513009743164,129.06006635657,2.223,울산 울주군 상북면 등억알프스리,좌표 오류 - 실제위치 2.2km 이격
관광 꿈꾸는숲 펜션,경기도 포천시 소흘읍 죽엽산로 490,37.7907315317,127.164922608,,,,,장소 미발견 (폐업/미등록 가능성)
기흥레스피아호수공원,경기도 용인시 기흥구 하갈로 79 (하갈동),19.69442748,117.9925662504,,,,,장소 미발견 (폐업/미등록 가능성)
문수산,경기도 김포시 월곶면 문수산로 90-19,37.7391402124,126.53890633,37.7397388602631,126.548842630062,0.876,경기 김포시 월곶면 조강리 산 33-1,좌표 불일치 (0.88km)
명성산,경기도 포천시 이동면 도평리,38.0956743687,127.3504217471,38.10428336579201,127.33815820418543,1.438,강원특별자치도 철원군 갈말읍 신철원리 산 26-23,좌표 오류 - 실제위치 1.4km 이격
수미마을,경기도 양평군 단월면 곱다니길 55-2,37.5153751443,127.6482810596,37.51449562876494,127.65739569519823,0.81,경기 양평군 단월면 봉상리 530-3,좌표 불일치 (0.81km)
어비계곡,경기도 가평군 설악면 어비산길99번길 9-10,37.6002624822,127.495092496,37.59895110934659,127.50348481425029,0.754,경기 가평군 설악면 가일리 164,좌표 불일치 (0.75km)
여강길,경기도 여주시 교동로 80 (교동),37.2825406263,127.6291450703,37.2930564650145,127.666903985779,3.539,경기 여주시 연양동 304-3,좌표 오류 - 실제위치 3.5km 이격
양주캠핑(구 양주그린캠프),경기도 양주시 칠봉산로168번길 290 (회암동),37.8469681178,127.0929636696,,,,,장소 미발견 (폐업/미등록 가능성)
오산반려동물테마파크,경기도 오산시 오산천로 72,19.69442748,117.9925662504,,,,,장소 미발견 (폐업/미등록 가능성)
잔원유림 풀빌라,경기도 양평군 단월면 섬이길 216,37.6252835176,127.5884305134,,,,,장소 미발견 (폐업/미등록 가능성)
재인폭포 (한탄강 유네스코 세계지질공원),경기도 연천군 연천읍 부곡리 192,38.0772227105,127.1427246484,,,,,장소 미발견 (폐업/미등록 가능성)
포천 산정호수,경기도 포천시 영북면 산정호수로 402,38.0655272256,127.3144453741,38.07116115225556,127.32086792273978,0.842,경기 포천시 영북면 산정리 227,좌표 불일치 (0.84km)
풍도,경기도 안산시 단원구 풍도길 28,37.1112106471,126.3929258117,37.1091237782099,126.387742144316,0.515,경기 안산시 단원구 풍도동,좌표 불일치 (0.51km)
포천아트밸리 (한탄강 유네스코 세계지질공원),경기도 포천시 신북면 아트밸리로 234,37.9238257074,127.2389925377,,,,,장소 미발견 (폐업/미등록 가능성)
한탄강 주상절리길(포천),경기도 포천시 영북면,38.0798348747,127.2169316606,38.0748253187404,127.203735476262,1.282,경기 포천시 관인면 중리 산 397-7,좌표 오류 - 실제위치 1.3km 이격
고석정 (한탄강 유네스코 세계지질공원),강원특별자치도 철원군 동송읍 태봉로 1825,38.1860265295,127.2869221163,,,,,장소 미발견 (폐업/미등록 가능성)
고성 통일전망타워,강원특별자치도 고성군 현내면 금강산로 481,38.5147706205,128.4173974953,38.58668704824648,128.3748882244336,8.81,강원특별자치도 고성군 현내면 명호리 2-23,좌표 오류 - 실제위치 8.8km 이격
국민의 숲 트레킹 코스,강원특별자치도 평창군 대관령마루길 340,37.6846095239,128.740693956,37.68790489236092,128.7455557472254,0.563,강원특별자치도 평창군 대관령면 횡계리 산 48,좌표 불일치 (0.56km)
김삿갓 계곡,강원특별자치도 영월군 김삿갓면 와석리,37.1205109135,128.6085978126,37.1170117768578,128.617307680637,0.865,강원특별자치도 영월군 김삿갓면 와석리,좌표 불일치 (0.86km)
"기억스테이(ㄱstay), 메모리스테이",강원특별자치도 강릉시 창해로370번길 3 (강문동),37.7958000874,128.9169552033,,,,,장소 미발견 (폐업/미등록 가능성)
꽃사슴복권마트(슈퍼맨편의점),강원특별자치도 강릉시 경강로 2113 (임당동),37.7561431866,128.8976220619,,,,,장소 미발견 (폐업/미등록 가능성)
도그밀리(DOGMILY),강원특별자치도 평창군 방림면 감동지길 100,37.4781855533,128.2729367936,,,,,장소 미발견 (폐업/미등록 가능성)
동해 논골담길(등대 담화마을),강원특별자치도 동해시 일출로 97,37.5522210485,129.1183390829,,,,,장소 미발견 (폐업/미등록 가능성)
막동계곡,강원특별자치도 평창군 진부면 오대천로,37.5372815062,128.5651392486,37.51102522951658,128.56034429972686,2.95,강원특별자치도 평창군 진부면 막동리 산 1,좌표 오류 - 실제위치 3.0km 이격
백두대간협곡열차(V-트레인),강원특별자치도 태백시 동태백로 389 (철암동),37.1131088552,129.0367097758,,,,,장소 미발견 (폐업/미등록 가능성)
별빛 반려견놀이터,강원특별자치도 영월군 연당리 1023,37.1861106486,128.4063306679,,,,,장소 미발견 (폐업/미등록 가능성)
붕어섬&황톳길,강원특별자치도 화천군 화천읍 강변로 2-54,38.1007385507,127.697012129,,,,,장소 미발견 (폐업/미등록 가능성)
샬레리조트,강원특별자치도 평창군 봉평면 석이바우길 71-20,37.5758479263,128.3490214575,,,,,장소 미발견 (폐업/미등록 가능성)
세인트존스호텔 파인 인피니티풀,강원특별자치도 강릉시 창해로 307 세인트존스호텔,37.7911618243,128.9215243801,,,,,장소 미발견 (폐업/미등록 가능성)
애견전용해수욕장 멍비치,강원특별자치도 양양군 현남면 광진리,37.9533540227,128.7728272095,,,,,장소 미발견 (폐업/미등록 가능성)
요선정·요선암,강원특별자치도 영월군 무릉도원면 도원운학로 13-39,37.2976367451,128.2619792382,,,,,장소 미발견 (폐업/미등록 가능성)
용소폭포(연하계곡),강원특별자치도 영월군 영월읍 연하리,37.1898493765,128.5672244618,,,,,장소 미발견 (폐업/미등록 가능성)
장전계곡,강원특별자치도 평창군 진부면 장전길 435-2,37.4773546471,128.5418181531,37.4996586704606,128.564337944808,3.178,강원특별자치도 평창군 진부면 장전리 산 1,좌표 오류 - 실제위치 3.2km 이격
죽도정·죽도 전망대,강원특별자치도 양양군 현남면 인구리 1-1,37.9716711612,128.7635358133,,,,,장소 미발견 (폐업/미등록 가능성)
직탕폭포 (한탄강 유네스코 세계지질공원),강원특별자치도 철원군 동송읍 장흥리,38.2097567004,127.2659177854,,,,,장소 미발견 (폐업/미등록 가능성)
춘천 의암호 자전거길(물레길),강원특별자치도 춘천시 스포츠타운길 113-1,37.8550197403,127.6857871373,,,,,장소 미발견 (폐업/미등록 가능성)
파로호(화천),강원특별자치도 화천군 간동면 배터길 36-8,38.0993652277,127.7779270055,38.0951138755809,127.772443638864,0.674,강원특별자치도 화천군 간동면 구만리 산 215-6,좌표 불일치 (0.67km)
평화의 댐(화천),강원특별자치도 화천군 화천읍 평화로 3481-18,38.2132809524,127.8435842372,38.206523102919384,127.85011321957376,0.943,강원특별자치도 화천군 화천읍 동촌리 2905-2,좌표 불일치 (0.94km)
하조대해수욕장,강원특별자치도 양양군 현북면 하조대해안길 35,38.0229894402,128.7242655472,38.0264231069221,128.720283162582,0.517,강원특별자치도 양양군 현북면 하광정리 80-2,좌표 불일치 (0.52km)
평창군 스카이 타워 체험시설,강원특별자치도 평창군 대관령면 스포츠파크길 160,37.6642219239,128.6853967844,,,,,장소 미발견 (폐업/미등록 가능성)
피노키오청소년수련원(피노키오 캠핑장),강원특별자치도 원주시 신림면 소야1길 72,37.2574840515,128.1677250095,,,,,장소 미발견 (폐업/미등록 가능성)
학마을캠프펜션,강원특별자치도 철원군 동송읍 도피동길 72-1,38.2361500102,127.2211322259,,,,,장소 미발견 (폐업/미등록 가능성)
홀리데이인&스위트 알펜시아 평창,강원특별자치도 평창군 대관령면 솔봉로 325,37.6609136479,128.6685317384,37.65788904517019,128.6729990285347,0.517,강원특별자치도 평창군 대관령면 용산리 425,좌표 불일치 (0.52km)
한반도지형(강원고생대 국가지질공원),강원특별자치도 영월군 한반도면 한반도로 555,37.2199280571,128.3575534938,,,,,장소 미발견 (폐업/미등록 가능성)
[해파랑길] 44코스,강원특별자치도 양양군 손양면 수산리,38.0800568005,128.6723268085,38.11965748754108,128.63194294125256,5.646,강원특별자치도 양양군 강현면 주청리 1-4,좌표 오류 - 실제위치 5.6km 이격
[해파랑길] 45코스,강원특별자치도 속초시 동해대로 3664,38.1632070033,128.6085577775,38.20425102502839,128.59236048139675,4.778,강원특별자치도 속초시 중앙동,좌표 오류 - 실제위치 4.8km 이격
말티재 전망대(말티고개),충청북도 보은군 장안면 장재리,36.4991475269,127.7893194701,,,,,장소 미발견 (폐업/미등록 가능성)
삼성 반려견 놀이터,충청북도 음성군 삼성면 양덕리,37.0249788699,127.4866180357,,,,,장소 미발견 (폐업/미등록 가능성)
사담관광농원캠핑,충청북도 괴산군 청천면 괴산로 197,36.6224781783,127.8075338463,,,,,장소 미발견 (폐업/미등록 가능성)
오대호아트팩토리,충청북도 충주시 앙성면 가곡로 1434,37.0944459236,127.7945188787,,,,,장소 미발견 (폐업/미등록 가능성)
충주호,충청북도 충주시 동량면 함암리,36.958149471,128.0400201677,36.98001682844732,128.08959186825095,5.031,충북 충주시 동량면 사기리 321,좌표 오류 - 실제위치 5.0km 이격
[충주 풍경길] 종댕이길,충청북도 충주시 종민동,36.9786407554,127.9965540359,,,,,장소 미발견 (폐업/미등록 가능성)
삼길포항,충청남도 서산시 대산읍 삼길포1로 72-2,36.9992162821,126.4509846649,37.0035417628837,126.452790265696,0.507,충남 서산시 대산읍 화곡리 1891,좌표 불일치 (0.51km)
스테이 앤드 스튜디오 여여재,충청남도 태안군 몽대로 448,36.6766143894,126.2741703813,,,,,장소 미발견 (폐업/미등록 가능성)
태안기업도시 버베나판타지(가든스퀘어),충청남도 태안군 태안읍 기업도시6길 43,36.7224490956,126.3387438841,,,,,장소 미발견 (폐업/미등록 가능성)
한채당 한옥체험관,충청남도 태안군 소원면 송의로 695-9,36.8300475341,126.1612654683,,,,,장소 미발견 (폐업/미등록 가능성)
낙동강 경천대(경천대 전망대),경상북도 상주시 사벌국면 경천로 652,36.4582827307,128.2440300692,,,,,장소 미발견 (폐업/미등록 가능성)
더 포레 관광펜션,경상북도 청도군 각남면 구곡1길 66-32,35.6373698403,128.6681627264,,,,,장소 미발견 (폐업/미등록 가능성)
동의참누리원 영천한의마을한옥체험관,경상북도 영천시 천문로 485 (화룡동),35.9784693542,128.9233029829,,,,,장소 미발견 (폐업/미등록 가능성)
문경 철로자전거(레일바이크),경상북도 문경시 마성면 진남1길 155,36.6543804013,128.1285264772,,,,,장소 미발견 (폐업/미등록 가능성)
리버스,경상북도 성주군 성주읍 참별로 2503,35.9150808699,128.2555136424,,,,,장소 미발견 (폐업/미등록 가능성)
벌영리 메타세콰이어길,경상북도 영덕군 영해면 벌영리,36.53034604,129.3841296935,,,,,장소 미발견 (폐업/미등록 가능성)
서남산한옥,경상북도 경주시 내남면 포석로 435-12,35.7808636366,129.2045588973,,,,,장소 미발견 (폐업/미등록 가능성)
안동시 월령빠지,경상북도 안동시 석주로 202 (상아동),36.5774565035,128.7585281457,,,,,장소 미발견 (폐업/미등록 가능성)
에스지빌라앤호텔(미동의),경상북도 경주시 감포읍 동해안로 1819-23,35.7705924587,129.4917340697,,,,,장소 미발견 (폐업/미등록 가능성)
울진 해안도로,경상북도 울진군 근남면 산포리,36.9655497642,129.4145306138,,,,,장소 미발견 (폐업/미등록 가능성)
위클라드 애견 풀빌라,경상북도 경주시 외동읍 죽동길 160-100,35.7412033678,129.3065788728,,,,,장소 미발견 (폐업/미등록 가능성)
장기척화비와 근민당,경상북도 포항시 남구 장기면 읍내길 99,35.8959172402,129.492955357,,,,,장소 미발견 (폐업/미등록 가능성)
가지산도립공원(밀양),경상남도 밀양시 산내면,35.5803348234,128.9804563782,35.59899121085363,129.01569521761124,3.802,경남 밀양시 산내면 삼양리 산 1-3,좌표 오류 - 실제위치 3.8km 이격
단장 이팝꽃 터널길,경상남도 밀양시 단장면,35.485566801,128.9312688684,35.4938557743657,128.928898743251,0.946,경남 밀양시 단장면 고례리 산 374-4,좌표 불일치 (0.95km)
십리벚꽃길,경상남도 하동군 화개면 화개로 142,35.2000061238,127.6304656321,35.1933035859538,127.624708087214,0.911,경남 하동군 화개면 탑리,좌표 불일치 (0.91km)
재약산,경상남도 밀양시 단장면 구천리,35.5209744841,128.9613069263,35.54541656587975,128.9805578963166,3.228,경남 밀양시 단장면 구천리 산 1,좌표 오류 - 실제위치 3.2km 이격
고창 고인돌 유적 [유네스코 세계유산],전북특별자치도 고창군 고창읍 고인돌공원길 74,35.4415120412,126.651534939,,,,,장소 미발견 (폐업/미등록 가능성)
경천애인 징검다리길,전북특별자치도 완주군 경천면 경천리 680-3,36.0210064504,127.2517887624,,,,,장소 미발견 (폐업/미등록 가능성)
군산 영화의 거리,전북특별자치도 군산시 구영6길 60 (신창동),35.9866620987,126.7096908504,,,,,장소 미발견 (폐업/미등록 가능성)
전북 전주 한옥마을 [슬로시티],전북특별자치도 전주시 완산구 기린대로 99 (남노송동),35.8183167088,127.1536278459,,,,,장소 미발견 (폐업/미등록 가능성)
콩쥐팥쥐 관광 한옥리조트,전북특별자치도 완주군 이서면 신지앵곡길 237-10,35.8036857071,127.031652974,,,,,장소 미발견 (폐업/미등록 가능성)
[진안고원길 9구간] 운일암반일암 숲길,전북특별자치도 진안군 주천면 대불리,35.9827437661,127.3885164886,,,,,장소 미발견 (폐업/미등록 가능성)
광양 매화마을,전라남도 광양시 다압면 목길 34-2,35.0785796984,127.7205191898,35.08040324951083,127.71535405614706,0.512,전남 광양시 다압면 도사리 548,좌표 불일치 (0.51km)
고집불통송가네,전라남도 해남군 북평면 동해길 108-23,34.4415633214,126.631441776,,,,,장소 미발견 (폐업/미등록 가능성)
골드마운틴하우스 (유한회사진도휴식),전라남도 진도군 고군면 원포길 226,34.4817629973,126.3770576294,,,,,장소 미발견 (폐업/미등록 가능성)
두언27,전라남도 여수시 율촌면 두언길 27,34.8371481635,127.5416882792,,,,,장소 미발견 (폐업/미등록 가능성)
산이정원,전라남도 해남군 산이면 구성리,34.7096793786,126.3967115799,34.709063075654264,126.38647576721002,0.938,전남 해남군 산이면 구성리 664,좌표 불일치 (0.94km)
임자도,전라남도 신안군 임자면 대광해수욕장길 179,35.0858264076,126.0917156572,35.0941887579171,126.089018756356,0.962,전남 신안군 임자면 대기리,좌표 불일치 (0.96km)
예양서원,전라남도 장흥군 장흥읍 예양4길 15-7,34.6764330935,126.8998875114,,,,,장소 미발견 (폐업/미등록 가능성)
오래된 숲(송산),전라남도 장흥군 장흥읍 송산길 59,34.6530355573,126.8901667154,,,,,장소 미발견 (폐업/미등록 가능성)
주식회사 더 오래뜰(게스트하우스 오래뜰),전라남도 목포시 북교길 27,34.7943501009,126.3782306228,,,,,장소 미발견 (폐업/미등록 가능성)
죽산보 오토캠핑장,전라남도 나주시 우정로 10,35.0247530385,126.7818948936,34.9707495549868,126.628113466606,15.241,전남 나주시 다시면 죽산리 123-2,좌표 오류 - 실제위치 15.2km 이격
(사)한국천연염색 숨(보성천연염색공예관 숨),전라남도 보성군 복내면 개기로 1529-45,34.9081246226,127.1183320154,,,,,장소 미발견 (폐업/미등록 가능성)
GRIDA(그리다 리조트),전라남도 여수시 돌산읍 강남해안로 60,34.7202425635,127.745459518,,,,,장소 미발견 (폐업/미등록 가능성)
녹산로 유채꽃도로,제주특별자치도 서귀포시 표선면 가시로565번길 20,33.3532755098,126.771635499,33.3841284847915,126.737872391599,4.648,제주특별자치도 서귀포시 표선면 가시리,좌표 오류 - 실제위치 4.6km 이격
서우봉둘레길,제주특별자치도 제주시 조천읍 함덕12길 16,33.5407280629,126.6641460999,33.5423958239209,126.671132125886,0.673,제주특별자치도 제주시 조천읍 함덕리 산 14-13,좌표 불일치 (0.67km)
섭지코지,제주특별자치도 서귀포시 성산읍 섭지코지로 107,33.430250088,126.9280674087,33.4239380655993,126.930609241011,0.74,제주특별자치도 서귀포시 성산읍 고성리 87,좌표 불일치 (0.74km)
성읍민속마을,제주특별자치도 서귀포시 표선면 성읍리,33.388430228,126.7882138165,33.384959730607484,126.8014989334944,1.292,제주특별자치도 서귀포시 표선면 성읍리 855-1,좌표 오류 - 실제위치 1.3km 이격
100코달리 와인바,서울특별시 중구 다산로38길 11,37.56330525,127.016417,,,,,장소 미발견 (폐업/미등록 가능성)
107page,경상북도 구미시 봉곡서로 87-34,36.15863384,128.30627,,,,,장소 미발견 (폐업/미등록 가능성)
1974유달동미스박,전라남도 목포시 비파로 61,34.80393238,126.425756,,,,,장소 미발견 (폐업/미등록 가능성)
2Cats,서울특별시 종로구 인사동길 11,37.57182943,126.986787,37.5072542445247,127.027252711584,8.018,서울 강남구 논현동 187,좌표 오류 - 실제위치 8.0km 이격
38 DEGREE,강원도 속초시 엑스포로 27,38.19104367,128.58822,,,,,장소 미발견 (폐업/미등록 가능성)
625전쟁체험기념관,강원도 고성군 현내면 통일전망대로 453,38.58407952,128.373679,,,,,장소 미발견 (폐업/미등록 가능성)
63아트,서울특별시 영등포구 63로 50,37.51966416,126.939909,,,,,장소 미발견 (폐업/미등록 가능성)
가우도,nan,34.52719533,126.764915,34.529166253401065,126.77175427559867,0.664,전남 강진군 도암면 신기리 123-3,좌표 불일치 (0.66km)
가산박물관,충청북도 옥천군 안내면 안내회남로 310-5,36.40466701,127.621897,,,,,장소 미발견 (폐업/미등록 가능성)
가원별장 펜션,경기도 양평군 단월면 명성길 176-1,37.62218608,127.631772,,,,,장소 미발견 (폐업/미등록 가능성)
가자펜션,경상남도 거제시 남부면 거제남서로 324-4,34.71600425,128.626327,,,,,장소 미발견 (폐업/미등록 가능성)
가평 퓨어향기 독채펜션,경기도 가평군 북면 가화로 2670-23,37.97137565,127.454239,,,,,장소 미발견 (폐업/미등록 가능성)
가평휴게소 반려견놀이터,경기도 가평군 설악면 미사리로540번길 51,37.70194035,127.546805,,,,,장소 미발견 (폐업/미등록 가능성)
각화제,nan,35.18452351,126.939782,35.17971639864242,126.94313309622741,0.615,광주 북구 각화동 75,좌표 불일치 (0.62km)
가학산근린공원,경기도 광명시 가학로85번길 134-23,37.42592096,126.865928,,,,,장소 미발견 (폐업/미등록 가능성)
감성공판장,전라남도 담양군 월산면 담장로 143,35.33528423,126.962041,,,,,장소 미발견 (폐업/미등록 가능성)
갓바위미술관,전라남도 목포시 노적봉길 4-1,34.79022712,126.385005,34.78866400141968,126.40331287595492,1.681,전남 목포시 산정동 1391-1,좌표 오류 - 실제위치 1.7km 이격
강릉선교장박물관,강원도 강릉시 운정길 63,37.7872994,128.884542,37.779373774014836,128.88099895550093,0.935,강원특별자치도 강릉시 죽헌동 177-4,좌표 불일치 (0.93km)
강릉대관령전망대,강원도 강릉시 성산면 영동고속도로 232,37.75734947,128.806638,37.72404772420009,128.77947023549893,4.407,강원특별자치도 강릉시 성산면 어흘리 803,좌표 오류 - 실제위치 4.4km 이격
강아지공간,경기도 용인시 수지구 용구대로 2769,37.33290687,127.108438,,,,,장소 미발견 (폐업/미등록 가능성)
강아지숲 반려견 테마파크,강원도 춘천시 남산면 충효로 437,37.73643502,127.66202,,,,,장소 미발견 (폐업/미등록 가능성)
강아지이발소,경상남도 김해시 내외중앙로 29,35.23266897,128.865954,,,,,장소 미발견 (폐업/미등록 가능성)
강천섬유원지,경기도 여주시 강천면 강천리길 88,37.23474348,127.707936,37.234338131678236,127.69423421408837,1.214,경기 여주시 강천면 강천리 627,좌표 오류 - 실제위치 1.2km 이격
강화 고벵이 오션뷰 수영장 애견동반 펜션,인천광역시 강화군 화도면 해안남로 2506-16,37.6273168,126.37992,,,,,장소 미발견 (폐업/미등록 가능성)
강화 마니산스토리,인천광역시 강화군 화도면 해안남로2220번길 30,37.6096682,126.396051,37.59638201798683,126.44250625606641,4.351,인천 강화군 화도면 동막리 119-1,좌표 오류 - 실제위치 4.4km 이격
강화 어나더153 애견펜션,인천광역시 강화군 화도면 해안남로 1669-12,37.5944154,126.437672,,,,,장소 미발견 (폐업/미등록 가능성)
강화 해마루 애견동반 펜션,인천광역시 강화군 화도면 해안남로 2289,37.60908898,126.386917,,,,,장소 미발견 (폐업/미등록 가능성)
강화 향기정원 애견동반펜션,인천광역시 강화군 화도면 해안남로 2166-39,37.60696815,126.400736,,,,,장소 미발견 (폐업/미등록 가능성)
강화도바다네스파펜션,인천광역시 강화군 길상면 해안남로 789-17,37.60624479,126.479886,,,,,장소 미발견 (폐업/미등록 가능성)
강화돌담캠핑 글램핑,인천광역시 강화군 삼산면 삼산북로 397-1,37.70120264,126.328233,,,,,장소 미발견 (폐업/미등록 가능성)
개가사는그집,경기도 파주시 책향기로 573,37.72775258,126.734377,,,,,장소 미발견 (폐업/미등록 가능성)
개다방,제주특별자치도 서귀포시 중앙로 166,33.25935333,126.559774,,,,,장소 미발견 (폐업/미등록 가능성)
개간지 애견카페,경기도 안산시 단원구 선부광장1로 38,37.336637,126.809391,,,,,장소 미발견 (폐업/미등록 가능성)
개들의수다,경기도 김포시 고촌읍 은행영사정로51번길 42,37.60457184,126.776563,,,,,장소 미발견 (폐업/미등록 가능성)
개떼놀이터 용인,경기도 용인시 기흥구 용구대로2335번길 47,37.29852289,127.106545,,,,,장소 미발견 (폐업/미등록 가능성)
개라다이스,서울특별시 관악구 봉천로 283,37.48766129,126.932624,,,,,장소 미발견 (폐업/미등록 가능성)
개린이세상,울산광역시 남구 정동로80번길 4,35.54087333,129.344658,,,,,장소 미발견 (폐업/미등록 가능성)
개린이네,경기도 용인시 기흥구 고매로43번길 12-23,37.23167734,127.116283,37.3053242863724,127.000929450865,13.087,경기 수원시 장안구 송죽동 445,좌표 오류 - 실제위치 13.1km 이격
개모임,전라북도 군산시 하나운로 122,35.96888143,126.704299,,,,,장소 미발견 (폐업/미등록 가능성)
개뭉치반려견세터,전라남도 여수시 충무로 73,34.76870746,127.612537,,,,,장소 미발견 (폐업/미등록 가능성)
개인공간,충청남도 공주시 반포면 도예촌길 74-13,36.39024444,127.217441,,,,,장소 미발견 (폐업/미등록 가능성)
개정촌,경기도 시흥시 중심상가3길 11,37.34500872,126.737047,,,,,장소 미발견 (폐업/미등록 가능성)
개차반,전라남도 목포시 양을로220번길 11-2,34.81067227,126.394927,,,,,장소 미발견 (폐업/미등록 가능성)
개털깎는남자,경기도 안양시 동안구 경수대로 805,37.39151118,126.944251,,,,,장소 미발견 (폐업/미등록 가능성)
개토피아,경기도 고양시 덕양구 화신로272번길 48,37.63295849,126.831962,,,,,장소 미발견 (폐업/미등록 가능성)
개프탑라운지,충청북도 청주시 흥덕구 송화로 156,36.66615033,127.450476,36.64330745072823,127.49527515438791,4.735,충북 청주시 상당구 수동 112-18,좌표 오류 - 실제위치 4.7km 이격
거제봄날펜션,경상남도 거제시 동부면 가배오송길 139,34.79255804,128.581313,,,,,장소 미발견 (폐업/미등록 가능성)
거제포로수용소유적공원박물관,경상남도 거제시 계룡로 61,34.87637998,128.62537,,,,,장소 미발견 (폐업/미등록 가능성)
거제해돋이 애견펜션,경상남도 거제시 장목면 신촌길 13-11,34.99896429,128.692509,,,,,장소 미발견 (폐업/미등록 가능성)
게스트하우스 하하네,서울특별시 마포구 토정로17길 31-8,37.54624807,126.935585,,,,,장소 미발견 (폐업/미등록 가능성)
게스트하우스파티유쾌한환이네,제주특별자치도 서귀포시 성산읍 일주동로 4675,33.41275161,126.899846,,,,,장소 미발견 (폐업/미등록 가능성)
겟썸커피,서울특별시 강남구 논현로159길 46-6,37.5224347,127.024464,,,,,장소 미발견 (폐업/미등록 가능성)
경기대학교소성박물관,경기도 수원시 영통구 광교산로 154-42,37.29801369,127.033117,37.30261577388804,127.03577806260215,0.563,경기 수원시 영통구 이의동 산 94-6,좌표 불일치 (0.56km)
견인차,경상남도 양산시 대운로 274,35.41099912,129.174944,,,,,장소 미발견 (폐업/미등록 가능성)
경기도자박물관,경기도 광주시 곤지암읍 경충대로 727,37.35028278,127.334786,37.35106477207964,127.3266332496694,0.726,경기 광주시 곤지암읍 삼리 72-1,좌표 불일치 (0.73km)
경북대학교미술관,대구광역시 북구 대학로 80,35.88909749,128.614322,35.8929821462696,128.61017890748445,0.571,대구 북구 산격동 1370-1,좌표 불일치 (0.57km)
경산공룡박물관,경상북도 경산시 남산면 하대2길 32-7,35.79613841,128.804876,,,,,장소 미발견 (폐업/미등록 가능성)
경포딩가 애견펜션,강원도 강릉시 하남길 345-7,37.809497,128.899023,,,,,장소 미발견 (폐업/미등록 가능성)
경천섬공원,nan,36.43188984,128.246993,36.4399243533953,128.259711893989,1.447,경북 상주시 중동면 오상리,좌표 오류 - 실제위치 1.4km 이격
계명대학교 행소박물관,대구광역시 달서구 달구벌대로 1095,35.85355435,128.481494,35.8567259527561,128.489897273498,0.835,대구 달서구 신당동 1000-2,좌표 불일치 (0.84km)
고려궁박물관,강원도 평창군 대관령면 올림픽로 1169,37.61869947,128.647588,,,,,장소 미발견 (폐업/미등록 가능성)
고부역사문화관,전라북도 정읍시 고부면 영주로 530,35.61905776,126.771426,,,,,장소 미발견 (폐업/미등록 가능성)
고복저택,세종특별자치시 연서면 도신고복로 741,36.61091396,127.233424,,,,,장소 미발견 (폐업/미등록 가능성)
고성자연사박물관,경상남도 고성군 회화면 남해안대로 3795-70,35.07070703,128.372725,35.0545153920978,128.39716585737,2.862,경남 고성군 회화면 당항리 60,좌표 오류 - 실제위치 2.9km 이격
고양이를 부탁해,경기도 군포시 산본로323번길 4-21,37.36026772,126.932386,37.4119196846557,127.133592039573,18.682,경기 성남시 분당구 야탑동 382-4,좌표 오류 - 실제위치 18.7km 이격
고양이팔경캣스쿨,경기도 남양주시 화도읍 창현로 9-3,37.64899428,127.306752,,,,,장소 미발견 (폐업/미등록 가능성)
공리저수지,충청남도 홍성군 구항면 내포로686번길 72,36.59239649,126.594495,36.59539023965442,126.600631618895,0.641,충남 홍성군 구항면 오봉리 389,좌표 불일치 (0.64km)
곰발이네 애견카페,전라남도 순천시 상사면 상사호길 409,34.94867918,127.44406,,,,,장소 미발견 (폐업/미등록 가능성)
공떡,대구광역시 중구 공평로4길 16-9,35.86489804,128.600794,,,,,장소 미발견 (폐업/미등록 가능성)
곰나루펜션,충청남도 공주시 사곡면 정안마곡사로 1355-50,36.57531981,127.043052,,,,,장소 미발견 (폐업/미등록 가능성)
공주교육대학교박물관,충청남도 공주시 웅진로 27,36.44520385,127.119655,36.4509873306073,127.122515894232,0.692,충남 공주시 봉황동 10,좌표 불일치 (0.69km)
곰이네애견카페,부산광역시 부산진구 서면로 26,35.1531228,129.058124,,,,,장소 미발견 (폐업/미등록 가능성)
관문사성보박물관,서울특별시 서초구 바우뫼로7길 111,37.47375033,127.022282,,,,,장소 미발견 (폐업/미등록 가능성)
구갈레스피아반려견놀이터,경기도 용인시 기흥구 중부대로 640,37.26682449,127.131244,37.2767180376743,127.15186367022037,2.131,경기 용인시 기흥구 중동 832-7,좌표 오류 - 실제위치 2.1km 이격
구례 시크릿가든,전라남도 구례군 토지면 피아골로 215,35.21873827,127.604808,,,,,장소 미발견 (폐업/미등록 가능성)
구리역공원,nan,37.60236014,127.141687,37.605930930103234,127.13688500047098,0.58,경기 구리시 인창동 309-2,좌표 불일치 (0.58km)
구리한강시민공원,경기도 구리시 코스모스길14번길 249,37.57447848,127.132863,37.5756256414086,127.142582525106,0.866,경기 구리시 토평동,좌표 불일치 (0.87km)
구름뜬하늘,서울특별시 마포구 와우산로27길 21,37.55414552,126.9271,,,,,장소 미발견 (폐업/미등록 가능성)
구름이쉬어가는곳펜션,강원도 평창군 봉평면 꿈동산길 39-30,37.56615818,128.352506,,,,,장소 미발견 (폐업/미등록 가능성)
구시포해수욕장,nan,35.44173173,126.446121,35.4443896938481,126.436194889993,0.947,전북특별자치도 고창군 상하면 자룡리 529-13,좌표 불일치 (0.95km)
구이저수지,nan,35.73166834,127.098744,35.72889081335796,127.12816107979548,2.673,전북특별자치도 완주군 구이면 원기리 1004-14,좌표 오류 - 실제위치 2.7km 이격
국립625전쟁납북자기념관,경기도 파주시 문산읍 임진각로 153,37.88897896,126.743209,,,,,장소 미발견 (폐업/미등록 가능성)
국립극장 공연예술박물관,서울특별시 중구 장충단로 59,37.55199491,126.999267,,,,,장소 미발견 (폐업/미등록 가능성)
국립수목원 산림박물관,경기도 포천시 소흘읍 광릉수목원로 509,37.75952331,127.168995,37.75576213153025,127.16473907502998,0.561,경기 포천시 소흘읍 직동리 51-7,좌표 불일치 (0.56km)
국립해양문화재연구소 태안해양유물전시관,충청남도 태안군 근흥면 신진대교길 94-33,36.67719658,126.151412,,,,,장소 미발견 (폐업/미등록 가능성)
국립현대미술관 미술품수장센터 청주관,충청북도 청주시 청원구 상당로 314,36.65619554,127.492382,,,,,장소 미발견 (폐업/미등록 가능성)
군위화산산성전망대,nan,36.09830933,128.781367,36.10577919709193,128.77857411283313,0.868,대구 군위군 삼국유사면 화북리 산 243,좌표 불일치 (0.87km)
군산휴게소 반려견놀이터,전라북도 군산시 나포면 서해안고속도로 148,36.01825676,126.797846,,,,,장소 미발견 (폐업/미등록 가능성)
권진규미술관,강원도 춘천시 동면 금옥길 228,37.92005546,127.805256,,,,,장소 미발견 (폐업/미등록 가능성)
귤꽃 카페,제주특별자치도 제주시 조천읍 함덕2길 90,33.53842286,126.655316,,,,,장소 미발견 (폐업/미등록 가능성)
그네애견카페,경기도 남양주시 화도읍 수레로1092번길 19-7,37.63360521,127.304786,,,,,장소 미발견 (폐업/미등록 가능성)
그대로 그렇게,전라북도 순창군 쌍치면 용전길 5-3,35.51055747,127.016614,,,,,장소 미발견 (폐업/미등록 가능성)
그랑샤리오펜션,강원도 평창군 방림면 감동지길 104,37.47853623,128.273022,,,,,장소 미발견 (폐업/미등록 가능성)
근현대사미술관담다,경기도 용인시 기흥구 어정로 134-24,37.27496827,127.146679,37.2771780752076,127.13665953850429,0.92,경기 용인시 기흥구 상하동 519-5,좌표 불일치 (0.92km)
그린그라스,경기도 성남시 분당구 석운로202번길 1,37.38076381,127.045785,,,,,장소 미발견 (폐업/미등록 가능성)
그린듯이 아름다운,경기도 가평군 조종면 명지산로 337-251,37.90861481,127.380467,,,,,장소 미발견 (폐업/미등록 가능성)
그림하우스,부산광역시 해운대구 송정구덕포길 64,35.17292101,129.19744,35.19931047250862,129.0640052725471,12.476,부산 동래구 사직동 70-10,좌표 오류 - 실제위치 12.5km 이격
글램독 애견펜션 거제점,경상남도 거제시 동부면 함박금길 26-5,34.79042984,128.558916,,,,,장소 미발견 (폐업/미등록 가능성)
글램핑코리아 양주애견점,경기도 양주시 백석읍 권율로 848,37.77384124,126.96138,,,,,장소 미발견 (폐업/미등록 가능성)
금강생태공원,충청남도 서천군 마서면 장산로 916,36.02280001,126.742693,36.02840369964073,126.75008496901825,0.911,충남 서천군 마서면 도삼리 751-1,좌표 불일치 (0.91km)
금강5공구너울마당,충청남도 부여군 규암면 진변로 39-7,36.280561,126.888382,,,,,장소 미발견 (폐업/미등록 가능성)
금산이네,경상북도 구미시 역전로 27,36.13124012,128.332281,36.120355273721806,128.35921960583923,2.705,경북 구미시 신평동 156-4,좌표 오류 - 실제위치 2.7km 이격
기린공원,nan,35.82403929,127.162358,35.8131482665259,127.168527149841,1.333,전북특별자치도 전주시 완산구 교동 1014-1,좌표 오류 - 실제위치 1.3km 이격
기성망양해수욕장,nan,36.85850811,129.421214,36.8423167736898,129.435005583737,2.179,경북 울진군 기성면 망양리,좌표 오류 - 실제위치 2.2km 이격
기억수퍼,강원도 횡성군 횡성읍 대동로 19,37.49109405,127.98108,,,,,장소 미발견 (폐업/미등록 가능성)
길마중길,nan,37.51496793,127.015183,37.4843270036106,127.028204311773,3.596,서울 서초구 서초동 1353,좌표 오류 - 실제위치 3.6km 이격
길주로카페 애견,경기도 부천시 길주로 115,37.50626767,126.755361,,,,,장소 미발견 (폐업/미등록 가능성)
김남매누나,서울특별시 송파구 백제고분로42길 23,37.50465287,127.111,,,,,장소 미발견 (폐업/미등록 가능성)
김녕해수욕장,제주특별자치도 제주시 구좌읍 구좌해안로 237,33.55720814,126.736551,33.5574388587079,126.759313988844,2.109,제주특별자치도 제주시 구좌읍 김녕리 497-4,좌표 오류 - 실제위치 2.1km 이격
김바니네,서울특별시 동대문구 전농로 36,37.5680105,127.057406,,,,,장소 미발견 (폐업/미등록 가능성)
김환태문학관 최북미술관관,전라북도 무주군 무주읍 최북로 15,36.00303326,127.665316,,,,,장소 미발견 (폐업/미등록 가능성)
깜포펜션,강원도 평창군 용평면 운두령로 109-49,37.64672294,128.487006,,,,,장소 미발견 (폐업/미등록 가능성)
깔끄막 희컨집,인천광역시 강화군 강화읍 국화길 130,37.74469291,126.461029,,,,,장소 미발견 (폐업/미등록 가능성)
꼴 게스트하우스,전라북도 전주시 완산구 은행로 21,35.81809089,127.152021,,,,,장소 미발견 (폐업/미등록 가능성)
꽃개애견카페,대구광역시 달서구 상인로 84,35.81473225,128.547744,,,,,장소 미발견 (폐업/미등록 가능성)
꽃지해수욕장,nan,36.50516785,126.362764,36.497522408987685,126.36004110776923,0.884,충남 태안군 안면읍 승언리 136-1,좌표 불일치 (0.88km)
꽃과썸타다,제주특별자치도 서귀포시 안덕면 동광로 151,33.30973501,126.340157,,,,,장소 미발견 (폐업/미등록 가능성)
꿈,대전광역시 유성구 관들1길 14,36.42586127,127.388107,36.42204206540484,127.38291042727322,0.63,대전 유성구 관평동 664,좌표 불일치 (0.63km)
나곡해수욕장,nan,37.12892098,129.362487,37.1269032472886,129.371316241214,0.814,경북 울진군 북면 나곡리 707,좌표 불일치 (0.81km)
나무휴식,경기도 김포시 고촌읍 태리로 121,37.60073418,126.750277,,,,,장소 미발견 (폐업/미등록 가능성)
나인페츠 건대점,서울특별시 광진구 능동로 49,37.53581451,127.068397,,,,,장소 미발견 (폐업/미등록 가능성)
낙안읍성자료관,전라남도 순천시 낙안면 충민길 78,34.90843517,127.339308,,,,,장소 미발견 (폐업/미등록 가능성)
남산공원,nan,37.55558921,126.981204,37.5524979951415,126.989316855952,0.793,서울 중구 예장동 산 5-6,좌표 불일치 (0.79km)
남애3리해수욕장,nan,37.94002076,128.777593,37.9460180266845,128.784881145409,0.924,강원특별자치도 양양군 현남면 남애리,좌표 불일치 (0.92km)
남양펜션,강원도 춘천시 사북면 화악지암길 126,37.96773421,127.581907,,,,,장소 미발견 (폐업/미등록 가능성)
낭도항,nan,34.59827716,127.546593,34.6041896509331,127.538682271077,0.978,전남 여수시 화정면 낭도리 1306-15,좌표 불일치 (0.98km)
내강아지애견카페,경기도 파주시 새꽃로 80,37.75720123,126.768843,,,,,장소 미발견 (폐업/미등록 가능성)
내일더사랑해,인천광역시 남동구 선수촌공원로23번길 6-17,37.44190414,126.709352,,,,,장소 미발견 (폐업/미등록 가능성)
냉천,nan,35.94497591,129.393754,35.9291576839878,129.400264589984,1.854,경북 포항시 남구 오천읍 문충리,좌표 오류 - 실제위치 1.9km 이격
냐옹냐옹고양이까페,광주광역시 광산구 장신로64번길 9-14,35.19012959,126.818372,,,,,장소 미발견 (폐업/미등록 가능성)
냥냥댕댕 카페 수제간식,부산광역시 부산진구 중앙대로 947,35.17432988,129.072028,,,,,장소 미발견 (폐업/미등록 가능성)
냥이숑숑다방,전라북도 전주시 덕진구 명륜3길 17-1,35.84286028,127.127686,,,,,장소 미발견 (폐업/미등록 가능성)
너구리와친구들,대전광역시 서구 둔산로 18,36.35189717,127.37574,36.3286431567703,127.427489722556,5.308,대전 중구 은행동 48-20,좌표 오류 - 실제위치 5.3km 이격
너나우리 펜션 카페,강원도 홍천군 서면 한서로 1152,37.65460367,127.612704,,,,,장소 미발견 (폐업/미등록 가능성)
네모강아지 애견카페,경상북도 경주시 강동면 새마을로 1253,36.05665785,129.244242,,,,,장소 미발견 (폐업/미등록 가능성)
노리카페 운동장,경상북도 안동시 풍산읍 본마을길 20,36.59107386,128.631596,,,,,장소 미발견 (폐업/미등록 가능성)
노비오스,경상북도 경주시 진티길 37-4,35.78207529,129.330243,,,,,장소 미발견 (폐업/미등록 가능성)
농다리,nan,36.83621374,127.488578,36.828326852791825,127.49349245391075,0.98,충북 진천군 문백면 구산동리 126,좌표 불일치 (0.98km)
놀러와펜션,충청남도 태안군 고남면 안면대로 4269-7,36.42147721,126.41119,,,,,장소 미발견 (폐업/미등록 가능성)
농경생활사박물관,대구광역시 달성군 가창면 가창로 1003,35.79301962,128.625579,,,,,장소 미발견 (폐업/미등록 가능성)
농협 농업박물관,서울특별시 중구 새문안로 16,37.56649912,126.968556,,,,,장소 미발견 (폐업/미등록 가능성)
다대포해수욕장,nan,35.06027822,128.967656,35.0574021661925,128.972725014778,0.561,부산 사하구 다대동 851-1,좌표 불일치 (0.56km)
능산리고분군전시관,충청남도 부여군 부여읍 왕릉로 61,36.27705926,126.945117,36.27766852120679,126.90935658167237,3.206,충남 부여군 부여읍 동남리 501-21,좌표 오류 - 실제위치 3.2km 이격
다니맘 수제간식 레스토랑,서울특별시 노원구 한글비석로23길 26,37.65969337,127.071017,,,,,장소 미발견 (폐업/미등록 가능성)
다독인더시티,서울특별시 강남구 논현로101길 10,37.50461632,127.034044,,,,,장소 미발견 (폐업/미등록 가능성)
다독트레이닝,광주광역시 광산구 월계로 173,35.21365417,126.844331,,,,,장소 미발견 (폐업/미등록 가능성)
다산초당,전라남도 강진군 도암면 다산초당길 68-35,34.5807211,126.744944,34.576326721649366,126.74985478451552,0.664,전남 강진군 도암면 만덕리 415,좌표 불일치 (0.66km)
다산 현대프리미엄아울렛 흰디하우스,경기도 남양주시 다산순환로 50,37.61625793,127.152429,,,,,장소 미발견 (폐업/미등록 가능성)
다시사랑받개,서울특별시 중랑구 용마산로139나길 83,37.61897034,127.103604,37.598341016675334,127.10005847747571,2.315,서울 중랑구 망우동 466-4,좌표 오류 - 실제위치 2.3km 이격
단양강잔도,nan,36.96754552,128.31317,36.9779681580524,128.339650956831,2.622,충북 단양군 적성면 애곡리,좌표 오류 - 실제위치 2.6km 이격
달빛길스테이,전라북도 진안군 부귀면 오산길 74-4,35.83258929,127.342992,,,,,장소 미발견 (폐업/미등록 가능성)
달콤하개,부산광역시 수영구 광안해변로 289,35.15640606,129.125132,,,,,장소 미발견 (폐업/미등록 가능성)
담양애견운동장 fog dog,전라남도 담양군 월산면 담장로 515-19,35.34523644,126.921537,,,,,장소 미발견 (폐업/미등록 가능성)
당항포관광지고성수석전시관,경상남도 고성군 회화면 남해안대로 3795-70,35.07070703,128.372725,35.0550586505296,128.397262796717,2.831,경남 고성군 회화면 당항리 14,좌표 오류 - 실제위치 2.8km 이격
대구대학교 중앙박물관,경상북도 경산시 진량읍 대구대로 201,35.90453897,128.842813,35.90314139553828,128.85122167641632,0.773,경북 경산시 진량읍 내리리 15,좌표 불일치 (0.77km)
대구가톨릭대학교 역사박물관,경상북도 경산시 하양읍 하양로 13-13,35.90896711,128.807422,,,,,장소 미발견 (폐업/미등록 가능성)
대농3지구근린공원,충청북도 청주시 흥덕구 대농로 99,36.64360295,127.43385,36.640067498749,127.42642763766,0.77,충북 청주시 흥덕구 복대동 3388,좌표 불일치 (0.77km)
대동생태체육공원,경상남도 김해시 대동면 동남로 234-2,35.25348287,129.000493,35.2618973062338,129.003441945592,0.973,경남 김해시 대동면 조눌리 1-1,좌표 불일치 (0.97km)
대길이네 커멍,경기도 포천시 군내면 호국로 1636,37.89883707,127.207662,,,,,장소 미발견 (폐업/미등록 가능성)
대부도 미림펜션 신관,인천광역시 옹진군 영흥면 영흥로 679,37.26913639,126.453712,,,,,장소 미발견 (폐업/미등록 가능성)
대청호반자연생태공원,nan,36.37267216,127.474852,,,,,장소 미발견 (폐업/미등록 가능성)
대한불교조계종봉녕사 세주묘엄박물관,경기도 수원시 팔달구 창룡대로 236-54,37.2915096,127.037497,,,,,장소 미발견 (폐업/미등록 가능성)
댕그라미 애견카페,서울특별시 강남구 논현로115길 71,37.50832105,127.027203,,,,,장소 미발견 (폐업/미등록 가능성)
더157,경기도 평택시 죽백2길 234-16,37.01192907,127.132055,,,,,장소 미발견 (폐업/미등록 가능성)
더독,경기도 평택시 평택1로9번길 34,36.99391088,127.085668,,,,,장소 미발견 (폐업/미등록 가능성)
더마루애견펜션,충청남도 태안군 안면읍 삼봉길 72-30,36.57441335,126.326627,,,,,장소 미발견 (폐업/미등록 가능성)
더마을펜션,경기도 가평군 청평면 모꼬지로 124-25,37.68774352,127.36918,,,,,장소 미발견 (폐업/미등록 가능성)
더소가카페 달맞이점,부산광역시 해운대구 달맞이길117번가길 107-24,35.16378,129.156363,35.1581107420106,129.17905604376,2.157,부산 해운대구 중동 1499-13,좌표 오류 - 실제위치 2.2km 이격
더퍼피즈블루오션 애견펜션,강원도 양양군 강현면 동해대로 3411,38.14196164,128.612459,,,,,장소 미발견 (폐업/미등록 가능성)
더포트,서울특별시 강남구 영동대로142길 27,37.52521703,127.055506,37.5025424477831,127.052559050819,2.535,서울 강남구 대치동 900-18,좌표 오류 - 실제위치 2.5km 이격
덕수네애견카페,부산광역시 부산진구 동천로 66,35.15464615,129.062599,35.0993416371723,129.031750401744,6.759,부산 중구 광복동2가 11-1,좌표 오류 - 실제위치 6.8km 이격
데이비드쥬스,서울특별시 영등포구 여의동로 213,37.51859533,126.93963,,,,,장소 미발견 (폐업/미등록 가능성)
도계민화박물관,충청남도 천안시 동남구 정골1길 73-9,36.79279624,127.172224,,,,,장소 미발견 (폐업/미등록 가능성)
도그마실 흙집사랑 펜션,강원도 홍천군 북방면 성동로 1480,37.81793762,127.846672,,,,,장소 미발견 (폐업/미등록 가능성)
도그존,서울특별시 송파구 올림픽로12길 28,37.50910777,127.083191,,,,,장소 미발견 (폐업/미등록 가능성)
도그원 애견카페,서울특별시 은평구 연서로29길 25,37.61943907,126.91759,,,,,장소 미발견 (폐업/미등록 가능성)
도시커피,부산광역시 북구 낙동북로772번길 90,35.19479404,129.005815,35.24342401206342,129.0114498999018,5.432,부산 북구 금곡동 1890,좌표 오류 - 실제위치 5.4km 이격
도어401,서울특별시 강남구 선릉로161길 18,37.52748109,127.03901,,,,,장소 미발견 (폐업/미등록 가능성)
도자기공방숲 디저트카페,경기도 동두천시 동두천로 7,37.88203911,127.053929,,,,,장소 미발견 (폐업/미등록 가능성)
독립기념관,충청남도 천안시 동남구 목천읍 독립기념관로 1,36.781872,127.230398,36.78366949071773,127.22280833066404,0.705,충남 천안시 동남구 목천읍 남화리 230-1,좌표 불일치 (0.70km)
도펠하우스,충청남도 천안시 서북구 성거읍 명우리길 74,36.87777482,127.175717,,,,,장소 미발견 (폐업/미등록 가능성)
독독 애견카페,인천광역시 중구 공항서로 517,37.45898462,126.401501,,,,,장소 미발견 (폐업/미등록 가능성)
독스아웃,경기도 남양주시 화도읍 북한강로 1542-1,37.64604134,127.365238,,,,,장소 미발견 (폐업/미등록 가능성)
독앤트리,전라남도 순천시 해룡면 매안2길 21-8,34.92894933,127.552015,34.93278681997115,127.568867522755,1.594,전남 순천시 해룡면 신대리 318-2,좌표 오류 - 실제위치 1.6km 이격
동국대학교박물관,서울특별시 중구 필동로1길 30,37.55893664,126.998738,37.5596558395786,127.006211303255,0.664,서울 중구 장충동1가 62-35,좌표 불일치 (0.66km)
동락공원,경상북도 구미시 3공단1로 191,36.09945258,128.401751,36.0936074785958,128.402703681833,0.656,경북 구미시 진평동 766,좌표 불일치 (0.66km)
동곡박물관,충청북도 영동군 영동읍 대학로 10,36.17809238,127.779596,,,,,장소 미발견 (폐업/미등록 가능성)
동몽식탁,광주광역시 광산구 첨단중앙로182번길 28,35.22169019,126.84436,,,,,장소 미발견 (폐업/미등록 가능성)
동신대학교 문화박물관,전라남도 나주시 동신대길 67,35.04962488,126.717993,,,,,장소 미발견 (폐업/미등록 가능성)
동양자수박물관,강원도 강릉시 죽헌길 140-12,37.77809202,128.880257,,,,,장소 미발견 (폐업/미등록 가능성)
동주대학교 석파박물관,부산광역시 사하구 사리로55번길 16,35.10672357,128.997231,,,,,장소 미발견 (폐업/미등록 가능성)
동정호생태습지공원,경상남도 하동군 악양면 악양서로 109,35.14928903,127.689551,,,,,장소 미발견 (폐업/미등록 가능성)
두꺼비생태마을,충청북도 청주시 서원구 산남로10번길 26-9,36.61355165,127.471796,,,,,장소 미발견 (폐업/미등록 가능성)
드림파크 야생화공원,인천광역시 서구 자원순환로 170,37.5730906,126.648113,37.5754230346264,126.653488907402,0.54,인천 서구 백석동 58,좌표 불일치 (0.54km)
듀오펜션,강원도 평창군 방림면 감동지길 116-4,37.47943818,128.273707,,,,,장소 미발견 (폐업/미등록 가능성)
디뮤지엄 대림미술관 분관,서울특별시 용산구 독서당로29길 5-6,37.53734941,127.011572,,,,,장소 미발견 (폐업/미등록 가능성)
디어도그,서울특별시 은평구 응암로12길 32-1,37.5868254,126.91997,37.5048158513742,126.729085722933,19.141,인천 부평구 부평동 906,좌표 오류 - 실제위치 19.1km 이격
디어앨리스,서울특별시 용산구 녹사평대로40길 51,37.53445875,126.988644,,,,,장소 미발견 (폐업/미등록 가능성)
디오앤빈카페,경기도 고양시 덕양구 꽃내음1길 155,37.59935983,126.89047,,,,,장소 미발견 (폐업/미등록 가능성)
디테일,경상남도 창원시 성산구 상남로 212,35.23049355,128.689162,35.2223667978539,128.682149572215,1.106,경남 창원시 성산구 상남동 15,좌표 오류 - 실제위치 1.1km 이격
딜라이트리,서울특별시 강남구 압구정로48길 28,37.5268616,127.036617,,,,,장소 미발견 (폐업/미등록 가능성)
딩가 케이크,서울특별시 마포구 동교로29길 68,37.56340375,126.922074,,,,,장소 미발견 (폐업/미등록 가능성)
딩고,경기도 수원시 영통구 태장로54번길 166,37.23526851,127.055064,37.148473575565276,127.07580513581856,9.824,경기 오산시 원동 811-8,좌표 오류 - 실제위치 9.8km 이격
땡구네,경기도 광주시 곤지암읍 광여로 300-85,37.35528938,127.38216,,,,,장소 미발견 (폐업/미등록 가능성)
똥강아지들,서울특별시 관악구 호암로22길 77,37.46861659,126.937093,,,,,장소 미발견 (폐업/미등록 가능성)
뚜드림,대전광역시 유성구 지족동로142번길 11,36.38675549,127.309132,,,,,장소 미발견 (폐업/미등록 가능성)
라딧프로젝트 카페,서울특별시 송파구 송파대로 450,37.50685019,127.106151,,,,,장소 미발견 (폐업/미등록 가능성)
라떼하우스,경기도 양평군 서종면 도장계곡길 54,37.60272062,127.397698,37.6080966073558,127.376747009895,1.94,경기 양평군 서종면 도장리 268-8,좌표 오류 - 실제위치 1.9km 이격
라벤하임애견동반펜션,강원도 평창군 대관령면 차항길 159-34,37.70003108,128.690245,,,,,장소 미발견 (폐업/미등록 가능성)
라봉애견운동장,인천광역시 중구 용유서로174번길 54,37.44587386,126.382871,,,,,장소 미발견 (폐업/미등록 가능성)
라쿤빌리지,경기도 안산시 단원구 광덕동로 41,37.30817537,126.832108,,,,,장소 미발견 (폐업/미등록 가능성)
라쿤카페 꾸꾸네,서울특별시 종로구 대명길 26,37.58341822,127.000096,,,,,장소 미발견 (폐업/미등록 가능성)
랑랑 랑개 민박,전라북도 전주시 완산구 객원길 57-28,35.79603154,127.173445,,,,,장소 미발견 (폐업/미등록 가능성)
랑랑이네 정원,경기도 남양주시 와부읍 수레로486번길 5,37.60742606,127.258855,,,,,장소 미발견 (폐업/미등록 가능성)
러브스토리 애견펜션,경기도 양평군 용문면 은행나무길 25-20,37.53003787,127.55837,,,,,장소 미발견 (폐업/미등록 가능성)
런닝독 응암점,서울특별시 은평구 가좌로 251,37.59145765,126.915154,,,,,장소 미발견 (폐업/미등록 가능성)
레드하우스,충청북도 청주시 상당구 문의면 남계길 20-13,36.53296009,127.500185,,,,,장소 미발견 (폐업/미등록 가능성)
레이씨,서울특별시 서대문구 연희로15길 43,37.56924738,126.929894,37.5222858602839,127.030260469066,10.275,서울 강남구 신사동 593-27,좌표 오류 - 실제위치 10.3km 이격
레이크 더 독,경기도 용인시 처인구 남사읍 삼인로 148,37.15644756,127.142094,,,,,장소 미발견 (폐업/미등록 가능성)
레이크 독채펜션,전라북도 진안군 백운면 평노길 304,35.71027752,127.435342,,,,,장소 미발견 (폐업/미등록 가능성)
로맨틱큐브B,인천광역시 강화군 길상면 해안남로 664-8,37.60200267,126.491185,,,,,장소 미발견 (폐업/미등록 가능성)
로얄트리,강원도 양양군 서면 설악로 1528-29,38.07855571,128.520188,,,,,장소 미발견 (폐업/미등록 가능성)
루카의하루,대전광역시 유성구 동서대로179번길 20,36.34701932,127.296164,,,,,장소 미발견 (폐업/미등록 가능성)
르쉬드서울,서울특별시 송파구 위례성대로12길 18,37.51207315,127.121824,,,,,장소 미발견 (폐업/미등록 가능성)
리미술관,경상남도 사천시 사천읍 읍내로 52,35.08280164,128.091192,,,,,장소 미발견 (폐업/미등록 가능성)
리버스아쿠아,전라북도 전주시 완산구 중산9길 3-8,35.81807954,127.119716,,,,,장소 미발견 (폐업/미등록 가능성)
마오네 2호점,경상북도 포항시 남구 오천읍 냉천로 410,35.9584333,129.406467,,,,,장소 미발견 (폐업/미등록 가능성)
마오네놀이터 카페,경상북도 포항시 북구 환호로 72-7,36.07489103,129.390026,,,,,장소 미발견 (폐업/미등록 가능성)
마이달링독,인천광역시 서구 청라에메랄드로102번길 8-18,37.53341071,126.658503,,,,,장소 미발견 (폐업/미등록 가능성)
마이웨이 애견펜션,강원도 홍천군 서면 한서로 1477,37.64103668,127.632255,,,,,장소 미발견 (폐업/미등록 가능성)
마이퍼주는집,부산광역시 영도구 동삼로 120,35.08372709,129.071869,,,,,장소 미발견 (폐업/미등록 가능성)
마포다방,서울특별시 마포구 홍익로5안길 47-5,37.55281917,126.92081,37.5450615631976,126.925504925373,0.957,서울 마포구 상수동 356-7,좌표 불일치 (0.96km)
마즈막재삼거리,nan,36.98945416,127.989612,36.9728382445426,127.980125269669,2.031,충북 충주시 종민동,좌표 오류 - 실제위치 2.0km 이격
말박물관,경기도 과천시 경마공원대로 107,37.44121574,127.016294,37.4478802358376,127.012132873698,0.827,경기 과천시 주암동 685-42,좌표 불일치 (0.83km)
망상해수욕장,nan,37.59779097,129.081948,37.5933739406532,129.090473530107,0.897,강원특별자치도 동해시 망상동 393-100,좌표 불일치 (0.90km)
맘앤도그,제주특별자치도 제주시 구좌읍 송당4길 5,33.47089571,126.784504,,,,,장소 미발견 (폐업/미등록 가능성)
맘앤도그 단비,제주특별자치도 제주시 구좌읍 송당2길 36,33.46936873,126.784075,,,,,장소 미발견 (폐업/미등록 가능성)
맘앤도그 백호,제주특별자치도 제주시 구좌읍 송당2길 34,33.46943506,126.783856,,,,,장소 미발견 (폐업/미등록 가능성)
매산해안공원,nan,36.92692477,126.810857,36.930088607366,126.805897528258,0.564,충남 당진시 신평면 매산리 29-24,좌표 불일치 (0.56km)
망원 휴개소,서울특별시 마포구 희우정로 77,37.55314381,126.90274,,,,,장소 미발견 (폐업/미등록 가능성)
매로우,서울특별시 도봉구 덕릉로60다길 34,37.63759741,127.039102,37.5576289237715,126.921697603509,13.64,서울 마포구 동교동 201-13,좌표 오류 - 실제위치 13.6km 이격
매송휴게소 반려견놀이터,경기도 화성시 매송면 서해안고속도로 316,37.26531838,126.892899,,,,,장소 미발견 (폐업/미등록 가능성)
맥아트미술관,경기도 안산시 단원구 부흥로 254,37.21975458,126.602419,,,,,장소 미발견 (폐업/미등록 가능성)
멍더랜드,충청남도 홍성군 홍북읍 애향6길 23,36.65966536,126.684855,,,,,장소 미발견 (폐업/미등록 가능성)
멍멍벅스,서울특별시 마포구 잔다리로6길 28-1,37.55205953,126.92066,,,,,장소 미발견 (폐업/미등록 가능성)
멍멍으르렁컹컹,인천광역시 연수구 새말로 82,37.41898431,126.678674,,,,,장소 미발견 (폐업/미등록 가능성)
멍뭉아 놀다가,경기도 안성시 공도읍 문터길 38-5,37.01108564,127.197112,,,,,장소 미발견 (폐업/미등록 가능성)
멍박스24 애견셀프목욕 무인카페,서울특별시 성북구 보문로34길 39,37.59076885,127.017458,,,,,장소 미발견 (폐업/미등록 가능성)
멍블럭,경기도 남양주시 수동면 비룡로1378번길 36-6,37.74386903,127.286757,,,,,장소 미발견 (폐업/미등록 가능성)
멍비치 강릉,nan,37.95332631,128.77286,,,,,장소 미발견 (폐업/미등록 가능성)
멍숲,울산광역시 울주군 삼동면 조일1길 25,35.49687297,129.114172,,,,,장소 미발견 (폐업/미등록 가능성)
멍슈슈 애견놀이터,경기도 하남시 서하남로 23,37.51704421,127.146747,,,,,장소 미발견 (폐업/미등록 가능성)
멍스테이,강원도 고성군 토성면 천진해변길 58,38.26104765,128.559283,38.30184168103033,128.54523898911125,4.699,강원특별자치도 고성군 죽왕면 문암진리 81-25,좌표 오류 - 실제위치 4.7km 이격
멍스필드,경기도 고양시 덕양구 충장로 614-49,37.6644282,126.850163,,,,,장소 미발견 (폐업/미등록 가능성)
멍트럴파크 애견운동장,경기도 시흥시 하우로 186,37.47085457,126.782807,,,,,장소 미발견 (폐업/미등록 가능성)
멍이네,경기도 화성시 동탄대로시범길 148-20,37.20033897,127.1145,,,,,장소 미발견 (폐업/미등록 가능성)
멍포레스트,제주특별자치도 제주시 애월읍 평화로 2157,33.41314039,126.392786,,,,,장소 미발견 (폐업/미등록 가능성)
멍플스테이,경기도 안성시 죽산면 용설호수길 101,37.05682862,127.451989,,,,,장소 미발견 (폐업/미등록 가능성)
멍화만사성,경기도 화성시 동탄지성로 143,37.20953282,127.059602,,,,,장소 미발견 (폐업/미등록 가능성)
메르블루,경기도 시흥시 서해안로 1032-12,37.40584363,126.753753,,,,,장소 미발견 (폐업/미등록 가능성)
메이킷,서울특별시 강남구 삼성로 535,37.50961727,127.054664,37.5121706940432,127.047853723602,0.664,서울 강남구 삼성동 44-27,좌표 불일치 (0.66km)
메이드인선,대전광역시 유성구 노은서로 101,36.36930711,127.314264,,,,,장소 미발견 (폐업/미등록 가능성)
명지1공원,부산광역시 강서구 명지오션시티2로 17,35.08735018,128.899607,35.087730929185284,128.90699988050116,0.674,부산 강서구 명지동 3247,좌표 불일치 (0.67km)
명지원,전라남도 담양군 고서면 덕촌길 37,35.2099481,126.998422,35.1567383764591,126.918422862932,9.374,광주 동구 계림동 465-35,좌표 오류 - 실제위치 9.4km 이격
모던팬트리,대전광역시 유성구 원신흥남로42번길 15,36.33624966,127.339106,,,,,장소 미발견 (폐업/미등록 가능성)
모두올레 애견펜션,제주특별자치도 서귀포시 남원읍 남태해안로 279-4,33.28193994,126.732375,,,,,장소 미발견 (폐업/미등록 가능성)
모래미해수욕장,nan,35.34727067,126.426767,35.36341726619477,126.41500878698486,2.088,전남 영광군 백수읍 구수리,좌표 오류 - 실제위치 2.1km 이격
모소,경기도 수원시 팔달구 권광로364번길 9,37.27922641,127.038194,37.360362445997,127.057504331246,9.182,경기 용인시 수지구 고기동 222-2,좌표 오류 - 실제위치 9.2km 이격
모어스테이,부산광역시 금정구 오시게로 44,35.22134094,129.087622,35.1735449726161,129.196237530427,11.209,부산 해운대구 송정동 445-4,좌표 오류 - 실제위치 11.2km 이격
목포대학교박물관,전라남도 무안군 청계면 영산로 1666,34.91030656,126.44021,34.9074570666174,126.434786739032,0.587,전남 무안군 청계면 도림리 61,좌표 불일치 (0.59km)
목스녹스,경기도 포천시 소흘읍 초가팔로 49-19,37.8239394,127.152054,,,,,장소 미발견 (폐업/미등록 가능성)
몽그라운드,대전광역시 중구 어덕마을로 42-5,36.33493651,127.403943,,,,,장소 미발견 (폐업/미등록 가능성)
몽구네 애견카페,대구광역시 중구 북성로3길 55,35.87600611,128.582575,,,,,장소 미발견 (폐업/미등록 가능성)
몽스낵,서울특별시 도봉구 우이천로 333,37.64653232,127.026339,,,,,장소 미발견 (폐업/미등록 가능성)
몽스홀릭,경상남도 창원시 성산구 용지로113번길 1,35.22578724,128.678316,,,,,장소 미발견 (폐업/미등록 가능성)
무의도,nan,37.37955595,126.422173,37.3868071480195,126.418467797483,0.87,인천 중구 무의동,좌표 불일치 (0.87km)
무릉도원,전라북도 완주군 동상면 대아수목로 534-39,35.99964249,127.336178,35.9973119594253,127.377801394822,3.753,전북특별자치도 진안군 주천면 무릉리 1054-1,좌표 오류 - 실제위치 3.8km 이격
무심워터월드,nan,36.58405984,127.502388,,,,,장소 미발견 (폐업/미등록 가능성)
무스커피,서울특별시 송파구 가락로42길 12,37.51214973,127.12068,37.5927164391457,127.019165271271,12.663,서울 성북구 동선동1가 85-33,좌표 오류 - 실제위치 12.7km 이격
무안낙지공원,nan,34.99966895,126.35205,35.0050953825995,126.353952155646,0.628,전남 무안군 망운면 송현리 451-47,좌표 불일치 (0.63km)
무주 그랜드펜션,전라북도 무주군 설천면 구천동1로 135-6,35.89839648,127.774915,,,,,장소 미발견 (폐업/미등록 가능성)
묵현천,경기도 남양주시 화도읍 녹촌로 227-1,37.64011305,127.280842,37.6388865609677,127.317737555215,3.252,경기 남양주시 화도읍 창현리,좌표 오류 - 실제위치 3.3km 이격
문고리 한옥 독채 풀빌라펜션,경상북도 경주시 외외길 172-32,35.81896137,129.170953,,,,,장소 미발견 (폐업/미등록 가능성)
문막휴게소 반려견놀이터,강원도 원주시 문막읍 원문로 1234,37.33522267,127.858205,,,,,장소 미발견 (폐업/미등록 가능성)
물골안랜드 애견피크닉,경기도 남양주시 수동면 비룡로 945,37.71766177,127.3152,,,,,장소 미발견 (폐업/미등록 가능성)
미누현대미술관,경기도 성남시 수정구 공원로 360,37.44558105,127.149375,,,,,장소 미발견 (폐업/미등록 가능성)
미평산림욕장,nan,34.77660389,127.709456,34.7749787628956,127.715172380049,0.552,전남 여수시 미평동 21-1,좌표 불일치 (0.55km)
미미언니네 독푸드카페,경기도 남양주시 다산순환로 397-163,37.62099958,127.160164,,,,,장소 미발견 (폐업/미등록 가능성)
밀독 호텔,대구광역시 동구 팔공로51길 3,35.92276512,128.640809,,,,,장소 미발견 (폐업/미등록 가능성)
밀루앤라떼,서울특별시 마포구 토정로 27,37.54573429,126.913902,,,,,장소 미발견 (폐업/미등록 가능성)
바다독차지,울산광역시 울주군 서생면 해맞이로 1376,35.3709915,129.353176,,,,,장소 미발견 (폐업/미등록 가능성)
바다보다 카페,충청남도 태안군 안면읍 풍어제길 44-77,36.59453694,126.381422,36.5264940987291,126.334041693715,8.669,충남 태안군 안면읍 승언리 1947-12,좌표 오류 - 실제위치 8.7km 이격
바람새마을,경기도 평택시 고덕면 새악길 43-62,37.0133246,127.020162,,,,,장소 미발견 (폐업/미등록 가능성)
바바빈애견카페,대구광역시 수성구 용학로 21-1,35.82613747,128.612196,,,,,장소 미발견 (폐업/미등록 가능성)
바릴로체,강원도 홍천군 서면 굴업솔골길 91,37.62342692,127.677012,,,,,장소 미발견 (폐업/미등록 가능성)
바비앤불리,경기도 하남시 서하남로576번길 28,37.52107264,127.204155,,,,,장소 미발견 (폐업/미등록 가능성)
바산올레펜션,제주특별자치도 서귀포시 안덕면 대평로 29,33.23659918,126.363867,,,,,장소 미발견 (폐업/미등록 가능성)
바잇미,서울특별시 강남구 논현로175길 101-3,37.52256677,127.021258,37.4981940800063,127.038882667336,3.124,서울 강남구 역삼동 726-10,좌표 오류 - 실제위치 3.1km 이격
바크카페,강원도 속초시 중앙로 150-1,38.20406025,128.591642,,,,,장소 미발견 (폐업/미등록 가능성)
반포 한강공원,서울특별시 서초구 신반포로11길 40,37.50769397,126.992731,37.51081992690844,126.99716104081192,0.523,서울 서초구 반포동 115-5,좌표 불일치 (0.52km)
배추다방,경기도 부천시 부흥로 339,37.49419512,126.780159,37.5013784290248,126.75634525454737,2.248,경기 부천시 원미구 상동 567-16,좌표 오류 - 실제위치 2.2km 이격
배추공주와페키들의감성놀이터,서울특별시 동작구 상도로58길 4,37.49591989,126.953041,37.57681435092733,126.93122188775676,9.198,서울 서대문구 연희동 719-18,좌표 오류 - 실제위치 9.2km 이격
백석천근린공원,nan,37.73464013,127.034034,37.73399911984186,127.04100454297411,0.617,경기 의정부시 의정부동 553,좌표 불일치 (0.62km)
백제역사고분,세종특별자치시 노을3로 85,36.47917404,127.254667,,,,,장소 미발견 (폐업/미등록 가능성)
범어사 성보박물관,부산광역시 금정구 범어사로 250,35.28304264,129.067621,35.2784068383485,129.07440021091648,0.803,부산 금정구 청룡동 산 2-1,좌표 불일치 (0.80km)
밸런스독 애견펜션,경기도 양평군 지평면 바깥섬부리1길 3-29,37.46426742,127.655751,,,,,장소 미발견 (폐업/미등록 가능성)
버드힐펜션,경기도 양평군 용문면 덕촌길 231-7,37.51299582,127.590598,,,,,장소 미발견 (폐업/미등록 가능성)
버디독,광주광역시 서구 화개1로 67,35.13003175,126.854601,,,,,장소 미발견 (폐업/미등록 가능성)
베라데로펜션,충청남도 태안군 남면 용궁길 77,36.63378502,126.30479,,,,,장소 미발견 (폐업/미등록 가능성)
벤치하우스,강원도 평창군 봉평면 흥정계곡1길 35-6,37.63546835,128.347724,,,,,장소 미발견 (폐업/미등록 가능성)
변산마실길2코스,전라북도 부안군 변산면 노루목길 8-8,35.66392739,126.510394,35.668920180113396,126.51803519554646,0.886,전북특별자치도 부안군 변산면 운산리 441-13,좌표 불일치 (0.89km)
별빛정원펜션,강원도 평창군 봉평면 버들개길 80-9,37.53611209,128.389513,,,,,장소 미발견 (폐업/미등록 가능성)
보경사성보박물관,경상북도 포항시 북구 송라면 보경로 523,36.25296793,129.3192,,,,,장소 미발견 (폐업/미등록 가능성)
보리나라 학원농장고창청보리밭,전라북도 고창군 공음면 학원농장길 158-6,35.37610431,126.54362,,,,,장소 미발견 (폐업/미등록 가능성)
보은향토민속자료전시관,충청북도 보은군 보은읍 군청길 38,36.48970363,127.729748,,,,,장소 미발견 (폐업/미등록 가능성)
보크아웃도어카페,경기도 양주시 은현면 화합로941번길 101-8,37.86513389,127.026916,,,,,장소 미발견 (폐업/미등록 가능성)
봉황동유적 패총단면전시관,경상남도 김해시 가락로63번길 26,35.23198022,128.878991,,,,,장소 미발견 (폐업/미등록 가능성)
부산문화회관,부산광역시 남구 유엔평화로 6,35.1344766,129.091719,35.1273355645175,129.093788300172,0.816,부산 남구 대연동 848-4,좌표 불일치 (0.82km)
부산 사직종합운동장 실내체육관 2층,부산광역시 동래구 사직로 55-32,35.19231214,129.060681,,,,,장소 미발견 (폐업/미등록 가능성)
부산과학기술대학교 민속자료실 박물관,부산광역시 북구 시랑로132번길 88,35.19419451,129.005303,,,,,장소 미발견 (폐업/미등록 가능성)
부산교육대학교 한새뮤지엄 교육박물관,부산광역시 연제구 교대로 24,35.19569321,129.077083,,,,,장소 미발견 (폐업/미등록 가능성)
부산어린이대공원,부산광역시 부산진구 새싹로 295,35.18250474,129.046693,35.1849136186692,129.041575693763,0.537,부산 부산진구 초읍동 43,좌표 불일치 (0.54km)
부산여자대학교 한국차박물관,부산광역시 부산진구 진남로 506,35.16923652,129.072055,,,,,장소 미발견 (폐업/미등록 가능성)
부석사성보박물관,경상북도 영주시 부석면 부석사로 345,36.99738133,128.685645,,,,,장소 미발견 (폐업/미등록 가능성)
북면수변생태공원,nan,35.37653874,128.612541,35.3805804769171,128.609777681817,0.515,경남 창원시 의창구 북면 외산리 108,좌표 불일치 (0.51km)
북앤독카페,경기도 광명시 하안로288번길 12-1,37.46224495,126.882225,,,,,장소 미발견 (폐업/미등록 가능성)
브레이브독스 애견카페,제주특별자치도 제주시 한림읍 한수풀로 138,33.42163929,126.276596,,,,,장소 미발견 (폐업/미등록 가능성)
브레이브펍스,경기도 고양시 일산서구 웅비로 4-19,37.68294217,126.757323,,,,,장소 미발견 (폐업/미등록 가능성)
브런치독,경기도 의정부시 금신로 311,37.74449473,127.062986,37.5692488816509,127.07297405629,19.506,서울 동대문구 장안동 338-9,좌표 오류 - 실제위치 19.5km 이격
브이센터 더 라이브 뮤지엄,서울특별시 강동구 아리수로61길 103,37.56539313,127.147715,,,,,장소 미발견 (폐업/미등록 가능성)
블랙노우즈 카페,서울특별시 강남구 선릉로 402,37.50079968,127.051008,,,,,장소 미발견 (폐업/미등록 가능성)
빈티지399,광주광역시 광산구 평동로 650,35.12624867,126.745768,,,,,장소 미발견 (폐업/미등록 가능성)
빈티지라디오하우스 애견펜션,충청남도 태안군 안면읍 대야로 304-33,36.46387512,126.416331,,,,,장소 미발견 (폐업/미등록 가능성)
빙하기,서울특별시 마포구 포은로 86-1,37.554773,126.905412,,,,,장소 미발견 (폐업/미등록 가능성)
빼꼼하우스,서울특별시 마포구 독막로8길 15-6,37.54700048,126.918232,,,,,장소 미발견 (폐업/미등록 가능성)
뽀야쌀롱,경기도 양평군 양서면 목왕로688번길 47,37.56493135,127.390475,,,,,장소 미발견 (폐업/미등록 가능성)
사바나코쉬카,경기도 부천시 중동로248번길 71,37.5015058,126.772786,,,,,장소 미발견 (폐업/미등록 가능성)
사정소류지,대전광역시 중구 사정공원로 173,36.29660676,127.397995,,,,,장소 미발견 (폐업/미등록 가능성)
사촌마을자료관,경상북도 의성군 점곡면 점곡길 28,36.42516488,128.763,,,,,장소 미발견 (폐업/미등록 가능성)
산타페펜션,경상남도 거제시 장목면 율천두모로 126,34.97653357,128.695149,,,,,장소 미발견 (폐업/미등록 가능성)
삼포해수욕장,nan,38.31644595,128.512805,38.3153743689378,128.535096590844,1.948,강원특별자치도 고성군 죽왕면 삼포리,좌표 오류 - 실제위치 1.9km 이격
상남견,경기도 평택시 서정역로36번길 107,37.0581022,127.061636,,,,,장소 미발견 (폐업/미등록 가능성)
상주동학교당유물전시관,경상북도 상주시 은척면 우기1길 64,36.54016819,128.060637,,,,,장소 미발견 (폐업/미등록 가능성)
새만금방조제,nan,35.73894516,126.455509,35.8950832269423,126.516681385943,18.217,전북특별자치도 군산시 비응도동 123,좌표 오류 - 실제위치 18.2km 이격
샌디애견하우스,제주특별자치도 제주시 애월읍 예원로 121,33.45954384,126.399422,,,,,장소 미발견 (폐업/미등록 가능성)
새터산근린공원,충청남도 계룡시 새터산길 11,36.27524985,127.251087,,,,,장소 미발견 (폐업/미등록 가능성)
생각이나 펜션,경기도 양평군 단월면 명성길 128-4,37.62584047,127.636859,37.580581369412194,127.68147182094307,6.385,경기 양평군 단월면 부안리 32,좌표 오류 - 실제위치 6.4km 이격
생말체육공원,전라북도 군산시 분멀5길 29,35.96720988,126.570189,,,,,장소 미발견 (폐업/미등록 가능성)
서귀포 제주앓이 펜션,제주특별자치도 서귀포시 일주서로 166-56,33.25513164,126.491511,,,,,장소 미발견 (폐업/미등록 가능성)
서귀포 청 리조트,제주특별자치도 서귀포시 중산간서로157번길 68,33.25572265,126.497029,,,,,장소 미발견 (폐업/미등록 가능성)
서귀포칠십리시공원,제주특별자치도 서귀포시 현청로 41-19,33.26692553,126.554547,33.2463816394384,126.554193916615,2.285,제주특별자치도 서귀포시 서홍동 576-9,좌표 오류 - 실제위치 2.3km 이격
서울대학교미술관,서울특별시 관악구 관악로 1,37.46803806,126.959294,37.466545433547736,126.9496783370364,0.865,서울 관악구 신림동 산 56-1,좌표 불일치 (0.86km)
서산휴게소 반려견놀이터,충청남도 서산시 해미면 서해안고속도로 241,36.74290504,126.565021,,,,,장소 미발견 (폐업/미등록 가능성)
서울과학기술대학교 미술관,서울특별시 노원구 공릉로 232,37.63307893,127.076795,37.64066135905104,127.06685980156716,1.215,서울 노원구 중계동 508,좌표 오류 - 실제위치 1.2km 이격
서울대학교 치의학대학원 치의학박물관,서울특별시 종로구 대학로 101,37.58045239,126.997196,,,,,장소 미발견 (폐업/미등록 가능성)
서울생활사박물관 분관,서울특별시 노원구 동일로174길 27,37.62017392,127.076936,,,,,장소 미발견 (폐업/미등록 가능성)
서울역사박물관 본관,서울특별시 종로구 새문안로 55,37.57049685,126.971075,37.5623997015421,126.975511537049,0.982,서울 중구 태평로2가 250,좌표 불일치 (0.98km)
서울여자대학교박물관,서울특별시 노원구 화랑로 621,37.62878266,127.088992,37.6197018366411,127.07701499863,1.46,서울 노원구 공릉동 622,좌표 오류 - 실제위치 1.5km 이격
선데이사운즈,서울특별시 용산구 두텁바위로37길 6,37.54744856,126.981548,,,,,장소 미발견 (폐업/미등록 가능성)
선암계곡,nan,36.89027004,128.303006,36.907928623865,128.30938292488472,2.044,충북 단양군 단성면 대잠리 295-2,좌표 오류 - 실제위치 2.0km 이격
섬마을펜션,경상남도 거제시 일운면 거제대로 1988-10,34.81148899,128.68352,34.8201839874805,128.74928498676465,6.081,경남 거제시 일운면 옥림리 32,좌표 오류 - 실제위치 6.1km 이격
성산카페 어반정글,제주특별자치도 서귀포시 성산읍 신고로22번길 39,33.43680217,126.92119,,,,,장소 미발견 (폐업/미등록 가능성)
성수종합사회복지회관,서울특별시 성동구 뚝섬로1길 43,37.54542883,127.046948,37.56508501177507,127.02278473164604,3.052,서울 중구 신당동 160-2,좌표 오류 - 실제위치 3.1km 이격
성안미술관,제주특별자치도 제주시 중앙로 470,33.48110387,126.54161,,,,,장소 미발견 (폐업/미등록 가능성)
세계술문화박물관,충청북도 충주시 중앙탑면 탑정안길 12,37.01850597,127.865633,,,,,장소 미발견 (폐업/미등록 가능성)
세계오지민속박물관,제주특별자치도 서귀포시 성산읍 서성일로 474,33.41539642,126.840702,,,,,장소 미발견 (폐업/미등록 가능성)
세계장신구박물관,서울특별시 종로구 북촌로5나길 2,37.5809772,126.981806,,,,,장소 미발견 (폐업/미등록 가능성)
세븐카페,경상남도 김해시 금관대로 187,35.18151272,128.778708,35.19552591816154,128.79472801424194,2.132,경남 김해시 삼문동 62-2,좌표 오류 - 실제위치 2.1km 이격
세이멍,경기도 하남시 서하남로576번길 28,37.52107264,127.204155,,,,,장소 미발견 (폐업/미등록 가능성)
소노펫 클럽앤리조트 비발디파크,강원도 홍천군 서면 한치골길 262,37.65233706,127.687335,37.64819900565243,127.68308633445352,0.593,강원특별자치도 홍천군 서면 팔봉리 1290-17,좌표 불일치 (0.59km)
소래습지생태공원,인천광역시 남동구 소래로154번길 77,37.40736482,126.746337,37.4124100307355,126.747372334203,0.568,인천 남동구 논현동 1-55,좌표 불일치 (0.57km)
소라잡는댕댕이펜션,충청남도 태안군 안면읍 삼봉길 153,36.56927096,126.321098,,,,,장소 미발견 (폐업/미등록 가능성)
소롯길 카페 펜션,강원도 원주시 신림면 성남로 457,37.282063,128.084565,,,,,장소 미발견 (폐업/미등록 가능성)
소리산자연마당,전라북도 익산시 고봉로5길 7,35.95331977,126.968089,,,,,장소 미발견 (폐업/미등록 가능성)
소소정원,전라북도 익산시 망성면 여강로 1035-5,36.12928406,127.020956,,,,,장소 미발견 (폐업/미등록 가능성)
속초해수욕장,nan,38.18764605,128.590848,38.1902410513732,128.59564611783713,0.509,강원특별자치도 속초시 조양동 1412-1,좌표 불일치 (0.51km)
송도센트럴파크,인천광역시 연수구 컨벤시아대로 160,37.39036508,126.643568,37.3903632245344,126.637620690296,0.525,인천 연수구 송도동 38,좌표 불일치 (0.53km)
솔향공원 소나무전시관,충청북도 보은군 속리산면 속리산로 600,36.49920811,127.802708,,,,,장소 미발견 (폐업/미등록 가능성)
솔푸른향기펜션,충청남도 태안군 안면읍 수해길 85-71,36.60023225,126.350279,,,,,장소 미발견 (폐업/미등록 가능성)
송악산,제주특별자치도 서귀포시 대정읍 송악관광로 421-1,33.20776692,126.290888,33.19908293934712,126.28979142753593,0.971,제주특별자치도 서귀포시 대정읍 상모리 산 2,좌표 불일치 (0.97km)
송산리고분군 모형전시관,충청남도 공주시 왕릉로 37,36.46244576,127.112978,,,,,장소 미발견 (폐업/미등록 가능성)
쇳대박물관,서울특별시 종로구 이화장길 100,37.57980424,127.004617,,,,,장소 미발견 (폐업/미등록 가능성)
수다라성보박물관,전라남도 영광군 불갑면 불갑사로 450,35.19967508,126.550048,,,,,장소 미발견 (폐업/미등록 가능성)
수기해수욕장,인천광역시 옹진군 북도면 신도로182번길 35-10,37.52444203,126.434628,37.54461300858643,126.43186725671819,2.256,인천 옹진군 북도면 시도리,좌표 오류 - 실제위치 2.3km 이격
수덕공원,전라북도 군산시 구영1길 119,35.98994525,126.709063,,,,,장소 미발견 (폐업/미등록 가능성)
수리산도립공원,nan,37.36910362,126.900917,37.3646252063381,126.901506855221,0.501,경기 안양시 만안구 안양동 산 79-3,좌표 불일치 (0.50km)
수원화성,nan,37.28786446,127.018377,37.2869569586225,127.011795743342,0.591,경기 수원시 장안구 영화동 320-2,좌표 불일치 (0.59km)
수주팔봉,nan,36.89349288,127.91718,36.8982602684572,127.924291223407,0.825,충북 충주시 살미면 토계리,좌표 불일치 (0.83km)
수월봉,nan,33.29161177,126.168934,33.29476974463891,126.16310858641053,0.645,제주특별자치도 제주시 한경면 고산리 3760,좌표 불일치 (0.65km)
수질복원센터 앞 공원,전라북도 전주시 덕진구 중동로 150,35.84645267,127.063111,35.83982068818706,127.06659754423006,0.802,전북특별자치도 전주시 덕진구 장동 1094,좌표 불일치 (0.80km)
순천대학교박물관,전라남도 순천시 중앙로 255,34.96676128,127.480923,34.960427519930235,127.48016112158467,0.708,전남 순천시 매곡동 179-10,좌표 불일치 (0.71km)
순천 라온하우스애견펜션,전라남도 순천시 왕지로 238-3,34.9791706,127.544681,,,,,장소 미발견 (폐업/미등록 가능성)
숲사랑홍보관,강원도 강릉시 사천면 미노길 1,37.81715301,128.851319,,,,,장소 미발견 (폐업/미등록 가능성)
숲21길,경기도 화성시 병점중앙로21번길 21,37.20085659,127.042483,,,,,장소 미발견 (폐업/미등록 가능성)
숲속의정원 애견동반펜션,강원도 고성군 죽왕면 곡실평길 332,38.30652792,128.489706,,,,,장소 미발견 (폐업/미등록 가능성)
슈가파인 애견카페,대구광역시 달성군 가창면 헐티로 899,35.78448692,128.58826,,,,,장소 미발견 (폐업/미등록 가능성)
슈가브리움 호텔 리조트,전라남도 여수시 돌산읍 몰둠벙길 54,34.69895866,127.755274,,,,,장소 미발견 (폐업/미등록 가능성)
슈에뜨펜션캠핑,경기도 가평군 청평면 호명리길 134,37.72654746,127.466332,,,,,장소 미발견 (폐업/미등록 가능성)
스타독 반려견 테마파크,경기도 이천시 마장면 작촌로 92-23,37.24828363,127.344617,,,,,장소 미발견 (폐업/미등록 가능성)
스퀘어독스 서산점,충청남도 서산시 양열로 291,36.76198508,126.444495,,,,,장소 미발견 (폐업/미등록 가능성)
스테리나잇,경기도 안성시 원곡면 지문북길 104,37.06730138,127.151972,,,,,장소 미발견 (폐업/미등록 가능성)
스타펫미팅 애견카페,충청북도 충주시 성서7길 29-1,36.97206783,127.931314,,,,,장소 미발견 (폐업/미등록 가능성)
스테이솔티,제주특별자치도 제주시 구좌읍 해맞이해안로 480-1,33.55462336,126.798376,,,,,장소 미발견 (폐업/미등록 가능성)
슬로우포레스트,서울특별시 종로구 삼청로5길 20,37.58281605,126.98078,37.5473664997088,127.04094622627,6.608,서울 성동구 성수동1가 685-419,좌표 오류 - 실제위치 6.6km 이격
시노마니아,경기도 파주시 조리읍 뇌조로52번길 52-10,37.75108748,126.811408,,,,,장소 미발견 (폐업/미등록 가능성)
시오 마카롱,충청남도 태안군 안면읍 대야로 304-49,36.46389116,126.416018,,,,,장소 미발견 (폐업/미등록 가능성)
시월보름,대구광역시 동구 동부로 29,35.87440057,128.615634,,,,,장소 미발견 (폐업/미등록 가능성)
신라대학교박물관,부산광역시 사상구 백양대로700번길 140,35.1720525,128.997797,35.1677987815679,128.994418380729,0.564,부산 사상구 괘법동 산 1-23,좌표 불일치 (0.56km)
신구대학교 우촌박물관,경기도 성남시 중원구 광명로 377,37.44885139,127.167697,,,,,장소 미발견 (폐업/미등록 가능성)
신구대학교식물원 갤러리 우촌,경기도 성남시 수정구 적푸리로 9,37.43372945,127.081478,,,,,장소 미발견 (폐업/미등록 가능성)
신덕공원,nan,35.82683381,127.095595,35.8341399345696,127.1026196136046,1.03,전북특별자치도 전주시 완산구 효자동3가 1443-2,좌표 오류 - 실제위치 1.0km 이격
신선농장,부산광역시 남구 신선대산복로 174-3,35.10644401,129.105399,,,,,장소 미발견 (폐업/미등록 가능성)
신세개 애견카페,경상남도 진주시 내동면 내동로 216-18,35.15075967,128.087729,,,,,장소 미발견 (폐업/미등록 가능성)
신안철새박물관,전라남도 신안군 흑산면 흑산일주로 212,34.68677591,125.427618,,,,,장소 미발견 (폐업/미등록 가능성)
신세댕,대구광역시 달서구 앞산순환로 281,35.82719815,128.558403,,,,,장소 미발견 (폐업/미등록 가능성)
썸이프,서울특별시 강동구 강동대로53길 50,37.52492334,127.132452,37.5467233663599,126.9422385261,16.946,서울 마포구 대흥동 245-13,좌표 오류 - 실제위치 16.9km 이격
아난티 남해 호텔,경상남도 남해군 남면 남서대로1179번길 40-109,34.77771827,127.854726,,,,,장소 미발견 (폐업/미등록 가능성)
아라리인형의집 박물관,강원도 정선군 북평면 명주내길 43-1,37.43807911,128.646969,,,,,장소 미발견 (폐업/미등록 가능성)
아리랑센터 아리랑홀,강원도 정선군 정선읍 애산로 51,37.37638383,128.671536,,,,,장소 미발견 (폐업/미등록 가능성)
아오라,경상북도 구미시 고아읍 들성로13길 6-17,36.16358073,128.350475,,,,,장소 미발견 (폐업/미등록 가능성)
아이니 퍼피캐슬 펫카페,대구광역시 남구 앞산순환로89길 8,35.83171792,128.573901,,,,,장소 미발견 (폐업/미등록 가능성)
아이러브퍼피 수원광교점,경기도 수원시 영통구 웰빙타운로36번길 46-246,37.31191737,127.054793,,,,,장소 미발견 (폐업/미등록 가능성)
아중호수,전라북도 전주시 덕진구 한배미로 66,35.82596376,127.17106,35.82211884156679,127.17707145222646,0.69,전북특별자치도 전주시 덕진구 우아동1가 786,좌표 불일치 (0.69km)
아이유랑,경기도 남양주시 수동면 비룡로973번길 34,37.71854007,127.311493,37.80260992231143,127.34550885305809,9.815,경기 가평군 상면 연하리 475-3,좌표 오류 - 실제위치 9.8km 이격
아잉독,전라남도 여수시 미평로 49,34.76747661,127.70807,34.74374737281822,127.65136443751823,5.814,전남 여수시 소호동 360-9,좌표 오류 - 실제위치 5.8km 이격
아지터,대구광역시 동구 효동로6길 102,35.88097803,128.653257,35.8160817385946,128.756629037123,11.785,경북 경산시 사동 585-4,좌표 오류 - 실제위치 11.8km 이격
아트센터 나비 미술관,서울특별시 종로구 종로 26,37.56969128,126.980304,37.57757338883331,126.98047182047328,0.877,서울 종로구 사간동 93,좌표 불일치 (0.88km)
아침이슬펜션,강원도 평창군 봉평면 경강로 464-11,37.59761827,128.312054,,,,,장소 미발견 (폐업/미등록 가능성)
안녕강아지,경기도 하남시 미사강변중앙로 221,37.56633814,127.188499,37.56201727167991,127.19033007196361,0.507,경기 하남시 망월동 1102,좌표 불일치 (0.51km)
안다미로 카페,충청남도 천안시 서북구 두정상가5길 14,36.83124471,127.143666,36.8177968981048,127.156334127987,1.873,충남 천안시 동남구 신부동 459-8,좌표 오류 - 실제위치 1.9km 이격
안돌오름,제주특별자치도 제주시 구좌읍 중산간동로 2052,33.4735409,126.763138,33.457830549274156,126.7558689353096,1.873,제주특별자치도 제주시 구좌읍 송당리 산 66-2,좌표 오류 - 실제위치 1.9km 이격
안성맞춤 포시즌 애견테마파크,경기도 안성시 서운면 바우덕이로 348-24,36.96692604,127.281397,,,,,장소 미발견 (폐업/미등록 가능성)
알로하디디,경기도 화성시 비봉면 남이로 255,37.24956104,126.841556,,,,,장소 미발견 (폐업/미등록 가능성)
알베로벨로,경기도 남양주시 화도읍 소래비로 86-12,37.65786074,127.32027,37.65798298731261,127.33747005455184,1.514,경기 남양주시 화도읍 답내리 535-18,좌표 오류 - 실제위치 1.5km 이격
알앤비타운,제주특별자치도 서귀포시 분토왓로174번길 45,33.27989656,126.551752,,,,,장소 미발견 (폐업/미등록 가능성)
알토커피,대구광역시 수성구 수성로32길 127-19,35.8356829,128.614421,,,,,장소 미발견 (폐업/미등록 가능성)
알함브라 애견동반펜션,경상남도 남해군 남면 빛담촌길 7-6,34.7301466,127.86863,,,,,장소 미발견 (폐업/미등록 가능성)
앞산공원,대구광역시 남구 앞산순환로 574-116,35.82248314,128.585483,35.82721640685348,128.58765535374687,0.562,대구 남구 대명동 산 227-5,좌표 불일치 (0.56km)
애견샵서울리버티벨,서울특별시 강동구 양재대로 1410,37.53174182,127.138141,,,,,장소 미발견 (폐업/미등록 가능성)
애견카페 똥강아지,경기도 부천시 석천로169번길 34,37.50307308,126.760862,,,,,장소 미발견 (폐업/미등록 가능성)
애견카페 어썸,충청남도 천안시 서북구 성정공원5로 13,36.8282455,127.138935,,,,,장소 미발견 (폐업/미등록 가능성)
애견카페레삐,경기도 의정부시 평화로 571-1,37.74303547,127.046392,,,,,장소 미발견 (폐업/미등록 가능성)
애견카페122,부산광역시 부산진구 신천대로 122,35.15362556,129.054047,,,,,장소 미발견 (폐업/미등록 가능성)
애견카페왈,경기도 수원시 권선구 곡선로50번길 5-3,37.23856644,127.029939,,,,,장소 미발견 (폐업/미등록 가능성)
애견카페왈 사계점,제주특별자치도 서귀포시 안덕면 사계로114번길 54-12,33.24246552,126.304891,,,,,장소 미발견 (폐업/미등록 가능성)
애견카페히릿 건대점,서울특별시 광진구 광나루로 404,37.5469693,127.074406,,,,,장소 미발견 (폐업/미등록 가능성)
애견호텔몽이네맡겨보시개,충청북도 청주시 청원구 오창읍 중심상업로 23,36.71287954,127.429229,,,,,장소 미발견 (폐업/미등록 가능성)
애니멀고파크 광주점,광주광역시 광산구 어등대로648번안길 47,35.14831098,126.780881,,,,,장소 미발견 (폐업/미등록 가능성)
애니멀고파크 논현점,서울특별시 강남구 봉은사로47길 59,37.51356096,127.039785,,,,,장소 미발견 (폐업/미등록 가능성)
애니멀 패밀리 반려견카페,경기도 용인시 처인구 모현읍 초부로 84-41,37.31255476,127.25051,,,,,장소 미발견 (폐업/미등록 가능성)
애견회관,경기도 안성시 혜산로 37,37.01028271,127.274865,,,,,장소 미발견 (폐업/미등록 가능성)
애니플 반려문화교육센터 앤 퍼피스그린,대전광역시 유성구 송정길84번길 66,36.28658787,127.253189,,,,,장소 미발견 (폐업/미등록 가능성)
앨리스,부산광역시 해운대구 청사포로128번길 22,35.16056993,129.191322,35.1717706134458,129.175173428162,1.925,부산 해운대구 좌동 1461-5,좌표 오류 - 실제위치 1.9km 이격
앵두나무카페,서울특별시 강북구 덕릉로40다길 33-38,37.6331589,127.029817,,,,,장소 미발견 (폐업/미등록 가능성)
양구군립 박수근미술관,강원도 양구군 양구읍 박수근로 265-15,38.09617511,127.981616,,,,,장소 미발견 (폐업/미등록 가능성)
어달해수욕장,nan,37.56495754,129.112548,37.5687670493557,129.117531000801,0.61,강원특별자치도 동해시 어달동 52-4,좌표 불일치 (0.61km)
어느멋진날카페,강원도 양양군 강현면 동해대로 3373,38.13892965,128.614891,38.192517224916955,128.6017452981376,6.068,강원특별자치도 속초시 조양동 1450-42,좌표 오류 - 실제위치 6.1km 이격
어린왕자 애견펜션,강원도 양양군 손양면 선사유적로 316-14,38.05768095,128.682752,,,,,장소 미발견 (폐업/미등록 가능성)
어서오시게,경기도 평택시 고덕국제3길 114,37.05154471,127.048245,,,,,장소 미발견 (폐업/미등록 가능성)
어썸독,경기도 용인시 처인구 모현읍 능곡로 19,37.34085758,127.177178,,,,,장소 미발견 (폐업/미등록 가능성)
어우름 스파애견펜션,경상남도 거제시 일운면 거제대로 1488-9,34.79327307,128.665223,,,,,장소 미발견 (폐업/미등록 가능성)
에코랜드,제주특별자치도 제주시 조천읍 번영로 1278-169,33.45534851,126.668853,33.4513086438713,126.672330335995,0.553,제주특별자치도 제주시 조천읍 교래리 385-1,좌표 불일치 (0.55km)
에버그린과파인트리 애견동반펜션,경상남도 거제시 일운면 거제대로 1494-12,34.79379126,128.664595,,,,,장소 미발견 (폐업/미등록 가능성)
에스피온,서울특별시 강남구 삼성로71길 45,37.50116337,127.055313,37.5144765609211,127.064654508066,1.694,서울 강남구 삼성동 162-30,좌표 오류 - 실제위치 1.7km 이격
엘룬카페,부산광역시 수영구 광안해변로 247,35.15504543,129.120844,,,,,장소 미발견 (폐업/미등록 가능성)
엠아르 카페,경기도 남양주시 화도읍 북한강로 1602-22,37.65028508,127.368814,,,,,장소 미발견 (폐업/미등록 가능성)
여수 가즈아풀빌라,전라남도 여수시 돌산읍 돌산로 3159-6,34.70287737,127.757964,,,,,장소 미발견 (폐업/미등록 가능성)
여수 다시봄 애견동반 펜션,전라남도 여수시 돌산읍 평사로 339,34.65551872,127.727332,,,,,장소 미발견 (폐업/미등록 가능성)
여수 복자 스파펜션,전라남도 여수시 돌산읍 평사로 331,34.65547838,127.726389,,,,,장소 미발견 (폐업/미등록 가능성)
여수바다향기 키즈가족 독채펜션,전라남도 여수시 돌산읍 평사로 479,34.66213479,127.739173,,,,,장소 미발견 (폐업/미등록 가능성)
여자만갯벌,nan,34.79164857,127.577809,34.7901569655295,127.56761096817,0.946,전남 여수시 소라면 사곡리,좌표 불일치 (0.95km)
여수항방파제 하멜등대,nan,34.73643208,127.747797,,,,,장소 미발견 (폐업/미등록 가능성)
연세대학교 원주박물관,강원도 원주시 흥업면 연세대길 1,37.2748331,127.904328,37.281038253551756,127.8996585325236,0.804,강원특별자치도 원주시 흥업면 매지리 1496,좌표 불일치 (0.80km)
연우당 게스트하우스,전라북도 전주시 완산구 태조로 12-17,35.8155876,127.153111,,,,,장소 미발견 (폐업/미등록 가능성)
영남대학교민속촌,경상북도 경산시 대학로 280,35.83049163,128.75218,35.8278135300668,128.761612487532,0.901,경북 경산시 대동 214-1,좌표 불일치 (0.90km)
영남대학교박물관,경상북도 경산시 대학로 280,35.83049163,128.75218,35.8365267946147,128.756360436887,0.77,경북 경산시 조영동 321,좌표 불일치 (0.77km)
영랑호수공원,nan,38.21208449,128.584375,38.2184198961428,128.590171000936,0.868,강원특별자치도 속초시 영랑동 163-84,좌표 불일치 (0.87km)
영담한지미술관,경상북도 청도군 운문면 방음길 60,35.70454022,128.948612,35.67723726932724,128.89315802427916,5.856,경북 청도군 금천면 신지리 360-2,좌표 오류 - 실제위치 5.9km 이격
영산강8경 담양습지,nan,35.26156242,126.895508,35.2543303668933,126.895900026149,0.805,전남 담양군 대전면 태목리 656-2,좌표 불일치 (0.80km)
영분의일,부산광역시 강서구 명지오션시티8로42번길 20-11,35.08514256,128.909893,,,,,장소 미발견 (폐업/미등록 가능성)
영천악,nan,33.3088127,126.600015,33.295266768721305,126.6008223942392,1.508,제주특별자치도 서귀포시 상효동 2364,좌표 오류 - 실제위치 1.5km 이격
영흥도 라르고 애견동반펜션,인천광역시 옹진군 영흥면 영흥로757번길 178,37.26697719,126.447796,,,,,장소 미발견 (폐업/미등록 가능성)
오도1리간이해수욕장,nan,36.15981074,129.394423,36.1549355691878,129.398878511548,0.674,경북 포항시 북구 흥해읍 오도리,좌표 불일치 (0.67km)
오늘 카페,서울특별시 서초구 명달로4길 4,37.47984643,127.006088,37.4834902469489,126.856717626187,13.186,경기 광명시 광명동 92-12,좌표 오류 - 실제위치 13.2km 이격
오늘맑음,서울특별시 강북구 4.19로17길 14-1,37.6442841,127.005668,37.63300511624882,127.02378655194569,2.029,서울 강북구 미아동 160-37,좌표 오류 - 실제위치 2.0km 이격
오도그 케이크 카페,충청남도 천안시 서북구 불당29길 11-6,36.80978852,127.102137,,,,,장소 미발견 (폐업/미등록 가능성)
오독스,경기도 안양시 만안구 장내로149번길 30,37.39954203,126.923255,,,,,장소 미발견 (폐업/미등록 가능성)
오로라커피하우스,경기도 이천시 백사면 원적로775번길 16,37.34068975,127.462932,,,,,장소 미발견 (폐업/미등록 가능성)
오마이독,경기도 성남시 수정구 금토로107번길 85,37.40198677,127.073342,37.486536867789034,126.95852504226515,13.825,서울 관악구 봉천동 15-44,좌표 오류 - 실제위치 13.8km 이격
오멍가멍 애견카페 호텔,제주특별자치도 제주시 어영길 64-14,33.51743656,126.49823,,,,,장소 미발견 (폐업/미등록 가능성)
오미네커피 청라스퀘어7,인천광역시 서구 청라루비로 76,37.532284,126.6421,,,,,장소 미발견 (폐업/미등록 가능성)
오조리마을,nan,33.46134289,126.906686,33.4620767247977,126.914060484337,0.689,제주특별자치도 서귀포시 성산읍 오조리,좌표 불일치 (0.69km)
오성리,서울특별시 강북구 삼양로73가길 3,37.62939777,127.017455,,,,,장소 미발견 (폐업/미등록 가능성)
오창저수지,nan,36.73684344,127.414471,36.7324578745463,127.40895278301,0.693,충북 청주시 청원구 오창읍 성산리 322-3,좌표 불일치 (0.69km)
오수휴게소 반려견놀이터,전라북도 임실군 오수면 순천완주고속도로 74,35.54024563,127.311615,,,,,장소 미발견 (폐업/미등록 가능성)
오알카페,경기도 고양시 일산동구 성석로 328,37.7052759,126.794709,37.7145231525399,126.764278682314,2.868,경기 파주시 야당동 220-14,좌표 오류 - 실제위치 2.9km 이격
오창미래지농통테마공원,nan,36.73106048,127.398604,,,,,장소 미발견 (폐업/미등록 가능성)
오피큐알,경기도 수원시 팔달구 화서문로45번길 31,37.28669272,127.012347,,,,,장소 미발견 (폐업/미등록 가능성)
오해피펜션,강원도 평창군 방림면 감동지길 116-17,37.48021716,128.274891,,,,,장소 미발견 (폐업/미등록 가능성)
온스,전라남도 목포시 미항로 145,34.79743583,126.435759,,,,,장소 미발견 (폐업/미등록 가능성)
올대디 애견카페,경기도 부천시 신흥로 178,37.49995794,126.7776,,,,,장소 미발견 (폐업/미등록 가능성)
올드페리도넛,서울특별시 용산구 한남대로27길 66,37.53959965,127.003,37.52072277553913,127.0212927450624,2.647,서울 강남구 신사동 523-17,좌표 오류 - 실제위치 2.6km 이격
올레펜션,경상북도 포항시 북구 청하면 해안로2414번길 15-15,36.20745902,129.371304,,,,,장소 미발견 (폐업/미등록 가능성)
와룡산,경상남도 사천시 새섬바위길 390-4,34.97394207,128.083253,34.9721120908261,128.07734702588,0.575,경남 사천시 죽림동 산 142,좌표 불일치 (0.58km)
와글,경상북도 경산시 압량읍 압독2로8길 21,35.83932737,128.765259,35.8663166809221,128.592798112573,15.83,대구 중구 덕산동 110,좌표 오류 - 실제위치 15.8km 이격
완두콩 애견카페 펍,경기도 김포시 양촌읍 양곡2로 25,37.65364472,126.626911,,,,,장소 미발견 (폐업/미등록 가능성)
완주책박물관,전라북도 완주군 삼례읍 삼례역로 68,35.90745719,127.065756,,,,,장소 미발견 (폐업/미등록 가능성)
왈왈펫카페,경기도 고양시 일산동구 무궁화로 32-12,37.66211709,126.768038,,,,,장소 미발견 (폐업/미등록 가능성)
왕지벚꽃길,nan,34.93593364,127.907032,34.9437852722092,127.882443373683,2.405,경남 남해군 설천면 노량리,좌표 오류 - 실제위치 2.4km 이격
외도조경식물원,경상남도 거제시 일운면 외도길 17,34.76947226,128.711392,,,,,장소 미발견 (폐업/미등록 가능성)
용곡공원,충청남도 천안시 서북구 공원로 109,36.7930584,127.098591,36.79667218812675,127.09486584896379,0.521,충남 천안시 서북구 불당동 1279,좌표 불일치 (0.52km)
요기도기 카페,대구광역시 달서구 와룡로 169,35.84873231,128.536389,,,,,장소 미발견 (폐업/미등록 가능성)
용문사성보유물관,경상북도 예천군 용문면 용문사길 285-30,36.73150562,128.370525,,,,,장소 미발견 (폐업/미등록 가능성)
용인대학교박물관,경기도 용인시 처인구 용인대학로 134,37.22787888,127.170724,37.2222713834391,127.18838572285,1.684,경기 용인시 처인구 남동 555,좌표 오류 - 실제위치 1.7km 이격
우다다애견카페,부산광역시 북구 금곡대로 302,35.23530741,129.01416,,,,,장소 미발견 (폐업/미등록 가능성)
우석뮤지엄,서울특별시 서대문구 신촌로 129,37.55656393,126.940328,,,,,장소 미발견 (폐업/미등록 가능성)
우성펜션,인천광역시 강화군 삼산면 삼산북로806번길 92-40,37.73082196,126.293718,,,,,장소 미발견 (폐업/미등록 가능성)
우이천 벚꽃길 산책로,서울특별시 도봉구 우이천로20길 7,37.64173321,127.034772,,,,,장소 미발견 (폐업/미등록 가능성)
우전해수욕장,nan,34.95861592,126.135826,34.9714714447936,126.137153901466,1.435,전남 신안군 증도면 우전리,좌표 오류 - 실제위치 1.4km 이격
우키하우스,제주특별자치도 제주시 조천읍 신촌5길 56,33.53780665,126.621987,,,,,장소 미발견 (폐업/미등록 가능성)
우프우프,인천광역시 중구 하늘달빛로64번길 6-3,37.48575378,126.560445,37.5075383717653,126.735710369699,15.651,인천 부평구 삼산동 460-6,좌표 오류 - 실제위치 15.7km 이격
운천공원,nan,36.64284527,127.470121,36.6477484348215,127.471455861514,0.558,충북 청주시 흥덕구 운천동 618-2,좌표 불일치 (0.56km)
울산대학교박물관,울산광역시 남구 대학로 93,35.54183712,129.257425,35.5400927503533,129.268597245646,1.029,울산 남구 옥동 894,좌표 오류 - 실제위치 1.0km 이격
원광대학교박물관,전라북도 익산시 익산대로 460,35.97171397,126.960224,35.9662980947429,126.956670602014,0.682,전북특별자치도 익산시 신동 272,좌표 불일치 (0.68km)
웅천애견카페,전라남도 여수시 예울마루로 37-53,34.74626202,127.670873,34.75048329885616,127.69825641972011,2.546,전남 여수시 문수동 697-9,좌표 오류 - 실제위치 2.5km 이격
원더랜드 애견동반 캠핑 카라반,경상북도 청도군 매전면 청매로 825,35.61194551,128.821907,,,,,장소 미발견 (폐업/미등록 가능성)
월드컵공원,서울특별시 마포구 하늘공원로 86,37.57159797,126.881674,37.5685396959502,126.886883825534,0.571,서울 마포구 상암동 481-72,좌표 불일치 (0.57km)
원주허브팜식물박물관,강원도 원주시 마장2길 33,37.30800949,127.925027,,,,,장소 미발견 (폐업/미등록 가능성)
위클라드 애견 풀빌라,경상북도 경주시 외동읍 죽동길 160-102,35.74124402,129.307021,,,,,장소 미발견 (폐업/미등록 가능성)
웨스트사이드 카페 펜션,경상남도 통영시 산양읍 산양일주로 1262-15,34.77956061,128.401546,,,,,장소 미발견 (폐업/미등록 가능성)
위드멍,경기도 가평군 상면 수목원로 417-17,37.74462358,127.353953,,,,,장소 미발견 (폐업/미등록 가능성)
위켄드컴즈,경기도 광주시 능평로 47,37.35284231,127.164722,,,,,장소 미발견 (폐업/미등록 가능성)
위클리커피,경기도 성남시 수정구 위례광장로 12,37.46676779,127.142159,37.4784176764047,127.14393633277922,1.305,서울 송파구 장지동 884,좌표 오류 - 실제위치 1.3km 이격
위플레이독 애견놀이터,제주특별자치도 서귀포시 성산읍 서성일로1136번길 10-1,33.44402439,126.899752,,,,,장소 미발견 (폐업/미등록 가능성)
위플독 펜션,인천광역시 강화군 길상면 해안남로 368-18,37.60669859,126.514193,,,,,장소 미발견 (폐업/미등록 가능성)
유민미술관,제주특별자치도 서귀포시 성산읍 섭지코지로 107,33.42604238,126.926443,33.4291971800154,126.932230895342,0.642,제주특별자치도 서귀포시 성산읍 고성리 21,좌표 불일치 (0.64km)
유알마인,강원도 원주시 지정면 지정로 912,37.35851945,127.802277,,,,,장소 미발견 (폐업/미등록 가능성)
유포리아 애견운동장,경상남도 창원시 진해구 용원동로 19,35.09481902,128.80374,,,,,장소 미발견 (폐업/미등록 가능성)
유폴24시 애견셀프목욕 무인카페,경기도 수원시 팔달구 권광로142번길 31,37.25993581,127.033232,,,,,장소 미발견 (폐업/미등록 가능성)
육갑,경기도 남양주시 조안면 재재기로 537,37.59141526,127.319782,,,,,장소 미발견 (폐업/미등록 가능성)
이구역의댕댕이,경기도 구리시 갈매중앙로 70,37.63053607,127.117141,,,,,장소 미발견 (폐업/미등록 가능성)
이기대해안산책로,nan,35.12249104,129.119828,35.11577835670782,129.1271487816168,1.0,부산 남구 용호동,좌표 오류 - 실제위치 1.0km 이격
이누인,대전광역시 유성구 계백로421번길 53-6,36.27332553,127.288635,36.3664385758288,127.263095971753,10.604,충남 공주시 반포면 온천리 347-1,좌표 오류 - 실제위치 10.6km 이격
이상원미술관,강원도 춘천시 사북면 화악지암길 99,37.96832347,127.578352,37.96847523557953,127.57213233077808,0.545,강원특별자치도 춘천시 사북면 지암리 587,좌표 불일치 (0.55km)
이리오개,경상북도 구미시 인동15길 5,36.09988894,128.425802,,,,,장소 미발견 (폐업/미등록 가능성)
이뻐해줄개,경기도 수원시 팔달구 인계로68번길 6,37.26872023,127.024829,,,,,장소 미발견 (폐업/미등록 가능성)
이영미술관,경기도 용인시 기흥구 흥덕4로 63,37.27730628,127.090111,,,,,장소 미발견 (폐업/미등록 가능성)
이호테우말등대,nan,33.49932725,126.457478,33.50181748991683,126.4519579821247,0.582,제주특별자치도 제주시 이호일동,좌표 불일치 (0.58km)
이화여자대학교박물관,서울특별시 서대문구 이화여대길 52,37.56446452,126.950289,37.5603170022437,126.944708954847,0.674,서울 서대문구 대현동 11-1,좌표 불일치 (0.67km)
이플러,부산광역시 수영구 남천바다로33번길 27,35.14968451,129.114694,,,,,장소 미발견 (폐업/미등록 가능성)
인덕대학교 아정미술관,서울특별시 노원구 초안산로 12,37.63034387,127.0545,,,,,장소 미발견 (폐업/미등록 가능성)
인도그 카페,충청남도 당진시 북문로1길 24-9,36.89992451,126.630609,,,,,장소 미발견 (폐업/미등록 가능성)
인제스피디움 클래식카 박물관,강원도 인제군 기린면 상하답로 130,38.00260361,128.295385,38.00170500488294,128.28972800460085,0.506,강원특별자치도 인제군 기린면 북리 1500,좌표 불일치 (0.51km)
인디퍼피,광주광역시 광산구 임방울대로800번길 11-6,35.21680843,126.846721,,,,,장소 미발견 (폐업/미등록 가능성)
인천 라온제나힐 펜션,인천광역시 옹진군 영흥면 영흥북로 374-16,37.28112418,126.488758,,,,,장소 미발견 (폐업/미등록 가능성)
일산호수공원,경기도 고양시 일산동구 호수로 731,37.66444706,126.760442,37.6561360415672,126.764141543966,0.98,경기 고양시 일산동구 장항동 906,좌표 불일치 (0.98km)
인천학생625참전관,인천광역시 중구 우현로 66,37.47285336,126.629593,,,,,장소 미발견 (폐업/미등록 가능성)
자라섬,nan,37.81044078,127.53544,37.8157523632236,127.52794671299,0.884,경기 가평군 가평읍 달전리 30,좌표 불일치 (0.88km)
입양뜰,서울특별시 관악구 난우2길 9,37.47343267,126.919425,,,,,장소 미발견 (폐업/미등록 가능성)
자티,전라북도 완주군 용진읍 상삼용암2길 62-6,35.86996253,127.183738,,,,,장소 미발견 (폐업/미등록 가능성)
작은 통나무집,강원도 평창군 방림면 월암길 41-7,37.45974629,128.27069,,,,,장소 미발견 (폐업/미등록 가능성)
작은라떼,강원도 원주시 판부면 매봉길 26-10,37.32055918,127.943142,37.3445536120196,128.010905698072,6.559,강원특별자치도 원주시 행구동 62-2,좌표 오류 - 실제위치 6.6km 이격
장발장 펜션,경기도 포천시 일동면 사기막길 224,37.96015699,127.352629,38.0495075903965,127.346888254192,9.948,경기 포천시 영북면 산정리 801-112,좌표 오류 - 실제위치 9.9km 이격
장사도펜션,경상남도 통영시 산양읍 산양중앙로 320,34.79560943,128.416383,34.71492764703393,128.5864208274788,17.939,경남 거제시 남부면 저구리 640,좌표 오류 - 실제위치 17.9km 이격
장생도라지박물관,경상남도 진주시 금곡면 정자천로15번길 5,35.13833549,128.171375,,,,,장소 미발견 (폐업/미등록 가능성)
장승공원,nan,35.32382071,127.001045,,,,,장소 미발견 (폐업/미등록 가능성)
장전미술관,전라남도 진도군 임회면 하미길 39,34.4297596,126.237955,,,,,장소 미발견 (폐업/미등록 가능성)
재단법인 세종문화회관,서울특별시 종로구 세종대로 175,37.57184786,126.976168,37.56933844053835,126.9813682061893,0.537,서울 종로구 서린동 88,좌표 불일치 (0.54km)
재단법인 중남미문화원병설박물관,경기도 고양시 덕양구 대양로285번길 33-15,37.70358397,126.895348,,,,,장소 미발견 (폐업/미등록 가능성)
재단법인 한국등잔박물관,경기도 용인시 처인구 모현읍 능곡로56번길 8,37.33658645,127.177881,,,,,장소 미발견 (폐업/미등록 가능성)
저동항,nan,37.51066854,130.904676,37.496218175092636,130.90996947930375,1.673,경북 울릉군 울릉읍 저동리 48-8,좌표 오류 - 실제위치 1.7km 이격
전북대학교박물관,전라북도 전주시 덕진구 백제대로 567,35.84113827,127.131589,35.8459576786175,127.127551049059,0.648,전북특별자치도 전주시 덕진구 덕진동1가 664-14,좌표 불일치 (0.65km)
전라병영성 하멜기념관,전라남도 강진군 병영면 병영성로 180,34.71928737,126.818627,,,,,장소 미발견 (폐업/미등록 가능성)
전주대학교박물관,전라북도 전주시 완산구 천잠로 303,35.81616417,127.088884,35.80963697264035,127.08714327857925,0.743,전북특별자치도 전주시 완산구 효자동2가 1080,좌표 불일치 (0.74km)
전주한지박물관,전라북도 전주시 덕진구 팔복로 59,35.84512928,127.096705,35.8490298027835,127.100248808157,0.539,전북특별자치도 전주시 덕진구 팔복동2가 180,좌표 불일치 (0.54km)
전주사연생태박물관,전라북도 전주시 완산구 바람쐬는길 21,35.81159258,127.162587,,,,,장소 미발견 (폐업/미등록 가능성)
전주천생태학습장,nan,35.84916547,127.110002,,,,,장소 미발견 (폐업/미등록 가능성)
정기룡장군유물전시관,경상북도 상주시 사벌국면 충의로 230,36.44454111,128.213266,,,,,장소 미발견 (폐업/미등록 가능성)
정모시쉼터,제주특별자치도 서귀포시 부두로5번길 9,33.24471484,126.566192,33.2468620425848,126.571853712847,0.578,제주특별자치도 서귀포시 서귀동 962,좌표 불일치 (0.58km)
정다방 카페,서울특별시 강남구 테헤란로30길 31,37.49925201,127.040044,37.4431954828839,127.13699254281,10.586,경기 성남시 수정구 태평동 3436-3,좌표 오류 - 실제위치 10.6km 이격
정문규미술관,경기도 안산시 단원구 대부황금로 153-9,37.20532108,126.644263,,,,,장소 미발견 (폐업/미등록 가능성)
정부대전청사숲의공원A,대전광역시 서구 청사로 189,36.36268299,127.384904,,,,,장소 미발견 (폐업/미등록 가능성)
제8대유엔사무총장반기문 평화기념관,충청북도 음성군 원남면 행치길 15-5,36.89195764,127.664407,,,,,장소 미발견 (폐업/미등록 가능성)
제주 공룡랜드 전시관,제주특별자치도 제주시 애월읍 광령평화2길 1,33.44277602,126.432361,33.433399444386886,126.42201811764059,1.417,제주특별자치도 제주시 애월읍 고성리 937,좌표 오류 - 실제위치 1.4km 이격
제주 꽃담펜션,제주특별자치도 서귀포시 성산읍 해맞이해안로 2630,33.47657146,126.909532,,,,,장소 미발견 (폐업/미등록 가능성)
제주 마루호텔앤카페,제주특별자치도 서귀포시 안덕면 평화로 486,33.27937507,126.317938,,,,,장소 미발견 (폐업/미등록 가능성)
제주 애월 장군의집,제주특별자치도 제주시 애월읍 고내로7길 39-9,33.46627141,126.336184,,,,,장소 미발견 (폐업/미등록 가능성)
제주 에이치빌풀펜션,제주특별자치도 제주시 구좌읍 덕행로 175-32,33.53165963,126.796347,,,,,장소 미발견 (폐업/미등록 가능성)
제주 펠리체펜션,제주특별자치도 서귀포시 안덕면 사계북로 117,33.23724751,126.29981,,,,,장소 미발견 (폐업/미등록 가능성)
제주 하도조은 펜션,제주특별자치도 제주시 구좌읍 하도15길 107-6,33.51137602,126.893856,,,,,장소 미발견 (폐업/미등록 가능성)
제주디오빌펜션,제주특별자치도 서귀포시 색달로72번길 20,33.25924502,126.410305,,,,,장소 미발견 (폐업/미등록 가능성)
제주세계자연유산센터 세계유산전시관,제주특별자치도 제주시 조천읍 선교로 569-36,33.45691987,126.714752,,,,,장소 미발견 (폐업/미등록 가능성)
제주스런 서귀포점,제주특별자치도 서귀포시 성산읍 독자봉로24번길 75-30,33.39087005,126.873739,,,,,장소 미발견 (폐업/미등록 가능성)
제주아이스뮤지엄 종합전시관,제주특별자치도 제주시 은수길 69,33.47065125,126.488217,,,,,장소 미발견 (폐업/미등록 가능성)
제주양떼목장펜션,제주특별자치도 제주시 애월읍 도치돌길 289-13,33.4113577,126.365216,,,,,장소 미발견 (폐업/미등록 가능성)
제주옹기숨미술관,제주특별자치도 제주시 주르레길 55-19,33.44910719,126.480635,,,,,장소 미발견 (폐업/미등록 가능성)
제주평화박물관,제주특별자치도 제주시 한경면 청수서5길 63,33.30581859,126.249548,,,,,장소 미발견 (폐업/미등록 가능성)
제쥬엔,제주특별자치도 서귀포시 안덕면 소기왓로 41-14,33.23948048,126.369176,33.26958715201537,126.17782643478476,18.105,제주특별자치도 서귀포시 대정읍 신도리 2419,좌표 오류 - 실제위치 18.1km 이격
조금나루해수욕장,nan,34.99966895,126.35205,34.9950818779929,126.33454801191,1.674,전남 무안군 망운면 송현리 1070-3,좌표 오류 - 실제위치 1.7km 이격
조이런어질리티클럽,경기도 가평군 설악면 유명로 553-10,37.59759444,127.4881,,,,,장소 미발견 (폐업/미등록 가능성)
종포해양공원,전라남도 여수시 이순신광장로 146,34.73728904,127.739707,34.7384232032764,127.74501218747,0.501,전남 여수시 종화동,좌표 불일치 (0.50km)
종로문화체육센터 광화문아트홀,서울특별시 종로구 인왕산로1길 21,37.57420982,126.964661,,,,,장소 미발견 (폐업/미등록 가능성)
좋은아침팬션,충청남도 태안군 안면읍 밧개길 165-30,36.5291822,126.332706,,,,,장소 미발견 (폐업/미등록 가능성)
주문진방파제,nan,37.89765865,128.816839,37.8905497553604,128.83260998266,1.594,강원특별자치도 강릉시 주문진읍 주문리,좌표 오류 - 실제위치 1.6km 이격
죽도정,nan,37.95909493,128.745476,37.9715804171252,128.763833369904,2.125,강원특별자치도 양양군 현남면 인구리,좌표 오류 - 실제위치 2.1km 이격
중왕펜션,충청남도 서산시 지곡면 왕산길 18,36.87197072,126.373573,,,,,장소 미발견 (폐업/미등록 가능성)
지경리마을,nan,37.92043934,128.796394,37.9204490105282,128.803298981388,0.606,강원특별자치도 양양군 현남면 지경리 2-20,좌표 불일치 (0.61km)
지니앤독,서울특별시 관악구 남부순환로 1674,37.484358,126.936501,,,,,장소 미발견 (폐업/미등록 가능성)
진도역사관,전라남도 진도군 의신면 운림산방로 315,34.46699348,126.308382,,,,,장소 미발견 (폐업/미등록 가능성)
진도 브라운돔하우스,전라남도 진도군 임회면 폐동길 81,34.41886569,126.205888,,,,,장소 미발견 (폐업/미등록 가능성)
진쇼니샵,서울특별시 서초구 강남대로97길 23,37.51446227,127.018471,,,,,장소 미발견 (폐업/미등록 가능성)
진주교육대학교박물관,경상남도 진주시 진양호로369번길 3,35.18582508,128.067969,35.188976174051575,128.0768381476687,0.879,경남 진주시 남성동 169-17,좌표 불일치 (0.88km)
진영문화의집,경상남도 김해시 진영읍 여래로20번길 11,35.30450054,128.732753,35.24784232403206,128.66685374033705,8.688,경남 창원시 의창구 봉곡동 107-1,좌표 오류 - 실제위치 8.7km 이격
진주어린이박물관,경상남도 진주시 망경로224번길 40,35.18112477,128.078821,35.188976174051575,128.0768381476687,0.891,경남 진주시 남성동 169-17,좌표 불일치 (0.89km)
진천농다리,nan,36.82016879,127.512129,36.8261852540787,127.493199598646,1.813,충북 진천군 문백면 구산동리 601-32,좌표 오류 - 실제위치 1.8km 이격
징검다리연구소,경상북도 고령군 우곡면 도진3길 26-13,35.67616038,128.34307,,,,,장소 미발견 (폐업/미등록 가능성)
째즈고양이카페,경기도 성남시 분당구 양현로94번길 7,37.3918439,127.125413,,,,,장소 미발견 (폐업/미등록 가능성)
천안신부문예회관,충청남도 천안시 동남구 신부2길 12,36.81778514,127.15949,,,,,장소 미발견 (폐업/미등록 가능성)
청라호수공원,인천광역시 서구 청라대로 204,37.53996954,126.632809,37.53249042934526,126.63427992472252,0.842,인천 서구 청라동 1-794,좌표 불일치 (0.84km)
청계계곡 빈센트하우스 애견 펜션,경기도 포천시 일동면 운악청계로1480번길 99,37.94171046,127.346724,,,,,장소 미발견 (폐업/미등록 가능성)
청계천박물관 분관,서울특별시 성동구 청계천로 530,37.57126617,127.035043,,,,,장소 미발견 (폐업/미등록 가능성)
청도 지성휴펜션,경상북도 청도군 풍각면 봉수길 553-25,35.66564081,128.57191,,,,,장소 미발견 (폐업/미등록 가능성)
청암민속박물관,경기도 양주시 장흥면 권율로 83-5,37.72205241,126.94579,,,,,장소 미발견 (폐업/미등록 가능성)
청우요도자기박물관,전라남도 강진군 대구면 청자촌길 30-11,34.50662631,126.801687,,,,,장소 미발견 (폐업/미등록 가능성)
청초호 호수공원,강원도 속초시 철새길 76,38.19192935,128.586529,38.1955600929747,128.58249153514,0.536,강원특별자치도 속초시 교동 1025-1,좌표 불일치 (0.54km)
청춘고양이카페,서울특별시 마포구 양화로6길 79,37.54854519,126.918683,,,,,장소 미발견 (폐업/미등록 가능성)
청평호,nan,37.69820338,127.444773,37.711677430073834,127.44737167999536,1.516,경기 가평군 설악면 회곡리 산 116,좌표 오류 - 실제위치 1.5km 이격
춘자네쇠소깍,제주특별자치도 서귀포시 쇠소깍로 128,33.25214808,126.623007,,,,,장소 미발견 (폐업/미등록 가능성)
출렁다리,경상남도 통영시 욕지면 욕지일주로 1610,34.62513433,128.273331,34.621024910238596,128.27696317568984,0.565,경남 통영시 욕지면 동항리 369-9,좌표 불일치 (0.57km)
충남대학교 자연사박물관,대전광역시 유성구 대학로 99,36.36832812,127.341662,36.3635386181168,127.345526644244,0.635,대전 유성구 궁동 220,좌표 불일치 (0.64km)
충청남도산림박물관,세종특별자치시 금남면 산림박물관길 110,36.43769938,127.232743,,,,,장소 미발견 (폐업/미등록 가능성)
칠천도 애견민박,경상남도 거제시 하청면 연구2길 3-8,34.98115871,128.628571,,,,,장소 미발견 (폐업/미등록 가능성)
카메라영상박물관,전라북도 완주군 소양면 신교응암길 14,35.85302105,127.206544,,,,,장소 미발견 (폐업/미등록 가능성)
카이터스,제주특별자치도 제주시 매촌4길 3,33.51622324,126.59154,,,,,장소 미발견 (폐업/미등록 가능성)
카카오독 애견카페,서울특별시 강서구 곰달래로60길 33,37.53079464,126.86329,,,,,장소 미발견 (폐업/미등록 가능성)
카페 구할구 남산,서울특별시 중구 퇴계로20길 73,37.55820982,126.987009,,,,,장소 미발견 (폐업/미등록 가능성)
카페 달세뇨,서울특별시 강북구 수유로 59-1,37.63597462,127.020239,,,,,장소 미발견 (폐업/미등록 가능성)
카페 리뽀,부산광역시 해운대구 달맞이길117번가길 120-35,35.15779713,129.181759,,,,,장소 미발견 (폐업/미등록 가능성)
카페 리치블랙,충청남도 천안시 서북구 성정두정로 35,36.82880013,127.140923,,,,,장소 미발견 (폐업/미등록 가능성)
카페 멜버른,강원도 춘천시 남춘로45번길 28,37.86638945,127.729704,,,,,장소 미발견 (폐업/미등록 가능성)
카페 바람섬,전라북도 부안군 변산면 변산로 3301,35.59385073,126.490397,,,,,장소 미발견 (폐업/미등록 가능성)
카페 별달,경기도 평택시 목천로 64-3,37.0872077,127.055642,,,,,장소 미발견 (폐업/미등록 가능성)
카페 브루하하 호텔링,경기도 양주시 송랑로 211,37.80335389,127.085575,,,,,장소 미발견 (폐업/미등록 가능성)
카페 살다,경기도 포천시 소흘읍 광릉수목원로779번길 35-18,37.76916724,127.151851,,,,,장소 미발견 (폐업/미등록 가능성)
카페 아리네,서울특별시 양천구 목동동로 222-11,37.52537042,126.872716,,,,,장소 미발견 (폐업/미등록 가능성)
카페 애견미용,경상북도 구미시 형곡로 80,36.11399026,128.332107,,,,,장소 미발견 (폐업/미등록 가능성)
카페 어질리티,서울특별시 강동구 양재대로 1355,37.52739525,127.135616,,,,,장소 미발견 (폐업/미등록 가능성)
카페 퍼블리코,서울특별시 동작구 상도로 47,37.49994263,126.925834,,,,,장소 미발견 (폐업/미등록 가능성)
카페 페리토,경상남도 김해시 인제로398번길 18,35.26362759,128.898384,,,,,장소 미발견 (폐업/미등록 가능성)
카페 포레스트,대전광역시 대덕구 대청로 572,36.46999596,127.472323,36.6177466669668,127.485044116098,16.468,충북 청주시 서원구 수곡동 96-19,좌표 오류 - 실제위치 16.5km 이격
카페 필로,경상남도 김해시 신안계곡1길 18,35.17617796,128.786578,,,,,장소 미발견 (폐업/미등록 가능성)
카페 하울링,서울특별시 마포구 와우산로 170,37.55585821,126.931122,37.60740255487222,126.72922597694308,18.692,경기 김포시 풍무동 295,좌표 오류 - 실제위치 18.7km 이격
카페 홍,광주광역시 북구 첨단연신로107번길 29,35.20735095,126.861088,35.1690639729932,126.916387504255,6.586,광주 북구 중흥동 520,좌표 오류 - 실제위치 6.6km 이격
카페700,서울특별시 강서구 곰달래로 104,37.53030598,126.844331,,,,,장소 미발견 (폐업/미등록 가능성)
카페더뽀빠이,경기도 파주시 탄현면 법흥로 100-1,37.77658427,126.7064,,,,,장소 미발견 (폐업/미등록 가능성)
카페라봉,인천광역시 중구 용유서로174번길 54,37.44587386,126.382871,,,,,장소 미발견 (폐업/미등록 가능성)
카페루아,강원도 강릉시 주문진읍 향호리 113-1,37.90761981,128.803087,37.8428906551307,128.85523946377,8.53,강원특별자치도 강릉시 사천면 판교리 231-14,좌표 오류 - 실제위치 8.5km 이격
카페멍,전라북도 남원시 양림길 76,35.40267754,127.388719,,,,,장소 미발견 (폐업/미등록 가능성)
카페무네,서울특별시 종로구 자하문로 258,37.59729057,126.963544,37.5441010423012,126.970312338451,5.944,서울 용산구 청파동3가 24-50,좌표 오류 - 실제위치 5.9km 이격
카페소풍,경기도 부천시 길주로77번길 19-27,37.50691638,126.74938,37.50479388827064,126.73975532936923,0.881,인천 부평구 부개동 496-11,좌표 불일치 (0.88km)
카페미미콩,서울특별시 강동구 명일로10길 9,37.53189543,127.144544,,,,,장소 미발견 (폐업/미등록 가능성)
카페버킨,서울특별시 마포구 양화로6길 28,37.54890587,126.915615,,,,,장소 미발견 (폐업/미등록 가능성)
카페비앤비,경기도 용인시 기흥구 탑실로 34,37.23859647,127.109973,,,,,장소 미발견 (폐업/미등록 가능성)
카페사계절,대전광역시 중구 산서로 426,36.26938625,127.399391,,,,,장소 미발견 (폐업/미등록 가능성)
카페수리,경기도 광주시 곤지암읍 열미길 431,37.38559586,127.356803,,,,,장소 미발견 (폐업/미등록 가능성)
카페씨멘트,서울특별시 마포구 희우정로20길 72,37.55609447,126.904267,37.5459814736832,126.921322784151,1.878,서울 마포구 상수동 336-12,좌표 오류 - 실제위치 1.9km 이격
카페아래오후N 2호점,경기도 가평군 상면 수목원로 204,37.76065612,127.361496,,,,,장소 미발견 (폐업/미등록 가능성)
카페애견,충청남도 천안시 서북구 성성4길 43,36.84404862,127.136635,37.006244844802,127.077470327911,18.787,경기 평택시 세교동 233,좌표 오류 - 실제위치 18.8km 이격
카페영글다,경기도 평택시 우곡길 70-78,37.07360759,127.079505,,,,,장소 미발견 (폐업/미등록 가능성)
카페온,경기도 고양시 덕양구 세솔로 82,37.65137818,126.888721,37.6733383607889,126.765914338975,11.082,경기 고양시 일산서구 주엽동 50,좌표 오류 - 실제위치 11.1km 이격
카페위드멍냠,인천광역시 계양구 임학동로 34,37.54488285,126.736608,,,,,장소 미발견 (폐업/미등록 가능성)
카페유대,충청남도 천안시 서북구 1공단4길 29,36.83178239,127.148516,,,,,장소 미발견 (폐업/미등록 가능성)
카페인스,충청북도 충주시 국원초5길 56,36.98127355,127.945117,,,,,장소 미발견 (폐업/미등록 가능성)
카페팔마,전라남도 순천시 연향상가3길 8-1,34.95167739,127.518931,34.935134990380696,127.52165163081973,1.856,전남 순천시 연향동 133,좌표 오류 - 실제위치 1.9km 이격
카페호나,제주특별자치도 제주시 애월읍 하소로 557-10,33.43418353,126.396811,,,,,장소 미발견 (폐업/미등록 가능성)
카페휴개,인천광역시 서구 봉오재3로 124,37.52671391,126.672873,,,,,장소 미발견 (폐업/미등록 가능성)
카페하일런,경기도 여주시 세종대왕면 영릉로 489-6,37.32132235,127.609712,,,,,장소 미발견 (폐업/미등록 가능성)
카페흐노니,인천광역시 강화군 길상면 해안남로 328-7,37.60858299,126.517617,,,,,장소 미발견 (폐업/미등록 가능성)
카페희재,서울특별시 송파구 백제고분로11길 6,37.50777404,127.080024,,,,,장소 미발견 (폐업/미등록 가능성)
커피볶는강아지minipia,경기도 화성시 동탄대로시범길 185,37.20154492,127.109275,,,,,장소 미발견 (폐업/미등록 가능성)
커피에 빠진 캣츠,경기도 고양시 일산동구 성현로 185-43,37.71022102,126.807329,,,,,장소 미발견 (폐업/미등록 가능성)
커피와강아지 카페,대구광역시 남구 중앙대로 174-1,35.84875629,128.59102,35.87198828051747,128.49516536331654,9.016,대구 달성군 다사읍 서재리 536-1,좌표 오류 - 실제위치 9.0km 이격
커피타는너구리,경기도 성남시 수정구 수정로 142,37.44188479,127.135886,,,,,장소 미발견 (폐업/미등록 가능성)
커피타임,대전광역시 대덕구 중리로54번길 33-20,36.36476714,127.427119,36.351076829846974,127.37722633674997,4.72,대전 서구 둔산동 1053,좌표 오류 - 실제위치 4.7km 이격
컵인더스튜디오,서울특별시 광진구 아차산로25길 36,37.54293211,127.067355,,,,,장소 미발견 (폐업/미등록 가능성)
코리하우스,부산광역시 수영구 민락로13번길 21,35.15612624,129.121535,,,,,장소 미발견 (폐업/미등록 가능성)
코리아플라워파크,충청남도 태안군 안면읍 꽃지해안로 400,36.50112332,126.336785,36.615142457663914,126.29987976707945,13.1,충남 태안군 남면 신온리 168-56,좌표 오류 - 실제위치 13.1km 이격
코셔엘리푸드,서울특별시 용산구 회나무로26길 43,37.53856905,126.989942,,,,,장소 미발견 (폐업/미등록 가능성)
코지그라운드,충청남도 천안시 서북구 업성수변로 44,36.84329487,127.138555,,,,,장소 미발견 (폐업/미등록 가능성)
코코마또,울산광역시 북구 무룡로 995,35.60805579,129.436529,,,,,장소 미발견 (폐업/미등록 가능성)
코코샌드 카페,서울특별시 마포구 양화로23길 22-7,37.55967262,126.925252,,,,,장소 미발견 (폐업/미등록 가능성)
코쿠케이크,경기도 부천시 평천로669번길 9,37.51550592,126.765037,,,,,장소 미발견 (폐업/미등록 가능성)
쾌연재도자미술관,강원도 영월군 한반도면 한반도로 452,37.21816277,128.367963,,,,,장소 미발견 (폐업/미등록 가능성)
쿠쿠펫 애견카페,대전광역시 유성구 봉명로 27-7,36.34238192,127.342701,,,,,장소 미발견 (폐업/미등록 가능성)
쿠키마당펜션,강원도 평창군 방림면 감동지길 100,37.47814652,128.273261,,,,,장소 미발견 (폐업/미등록 가능성)
퀘렌시아 애견앤디저트까페,경상남도 사천시 포도원길 42,34.97309214,128.059035,,,,,장소 미발견 (폐업/미등록 가능성)
퀸스타운 애견펜션,경기도 양평군 단월면 석산로 1539-10,37.64653114,127.615046,,,,,장소 미발견 (폐업/미등록 가능성)
크레이지도넛,경기도 수원시 팔달구 효원로308번길 16,37.25983674,127.034625,,,,,장소 미발견 (폐업/미등록 가능성)
크루몽살롱,충청북도 청주시 서원구 사운로 81,36.63624968,127.478822,,,,,장소 미발견 (폐업/미등록 가능성)
클리어스펫푸드,서울특별시 마포구 동교로29길 48,37.56252547,126.922781,,,,,장소 미발견 (폐업/미등록 가능성)
키움반려견스쿨,경기도 성남시 분당구 석운로 198,37.38018291,127.045811,,,,,장소 미발견 (폐업/미등록 가능성)
킹스독,충청남도 서산시 충의로 200-3,36.78851125,126.43455,,,,,장소 미발견 (폐업/미등록 가능성)
킹콩하우스애견카페,경상북도 경산시 하양읍 하양로 26,35.90827531,128.813088,,,,,장소 미발견 (폐업/미등록 가능성)
탄앤크림,경기도 의정부시 평화로 627,37.74796338,127.045076,,,,,장소 미발견 (폐업/미등록 가능성)
털로덮인친구들 청라점,인천광역시 서구 담지로86번길 16-28,37.53632993,126.661535,,,,,장소 미발견 (폐업/미등록 가능성)
테이블에이 본점,서울특별시 마포구 와우산로 146,37.5540614,126.929517,,,,,장소 미발견 (폐업/미등록 가능성)
테리몽하우스 카페,부산광역시 해운대구 세실로69번길 5,35.17086699,129.1764,,,,,장소 미발견 (폐업/미등록 가능성)
텐덤커피클럽,강원도 양양군 강현면 장산5길 71-5,38.13612838,128.583426,,,,,장소 미발견 (폐업/미등록 가능성)
텐빌리언,대구광역시 남구 대경7길 12-2,35.84889344,128.573608,,,,,장소 미발견 (폐업/미등록 가능성)
토마토 애견동반펜션,인천광역시 강화군 화도면 해안남로 2506,37.62660724,126.37904,,,,,장소 미발견 (폐업/미등록 가능성)
토이파크 뮤지엄,제주특별자치도 서귀포시 안덕면 동광로 267-7,33.31895957,126.345363,33.30225273974952,126.33780216268421,1.986,제주특별자치도 서귀포시 안덕면 동광리 1045,좌표 오류 - 실제위치 2.0km 이격
토종흑염소목장 남원본점,제주특별자치도 서귀포시 남원읍 서성로 544-97,33.31748682,126.659681,,,,,장소 미발견 (폐업/미등록 가능성)
톨리커피,서울특별시 노원구 상계로9나길 9,37.66018884,127.068065,,,,,장소 미발견 (폐업/미등록 가능성)
톱머리해수욕장,nan,34.98658377,126.38728,34.9681604787303,126.386703097753,2.049,전남 무안군 망운면 피서리 809-3,좌표 오류 - 실제위치 2.0km 이격
통도사성보박물관,경상남도 양산시 하북면 통도사로 108,35.47542097,129.05665,35.4884511789703,129.066529882452,1.703,경남 양산시 하북면 지산리 산 83-60,좌표 오류 - 실제위치 1.7km 이격
투게독 펜션,경상남도 남해군 설천면 설천로332번길 87-36,34.89110312,127.917815,,,,,장소 미발견 (폐업/미등록 가능성)
투테일즈 수제간식,서울특별시 성동구 성덕정길 33,37.53904486,127.04748,,,,,장소 미발견 (폐업/미등록 가능성)
파도소리길,nan,35.69013831,129.467215,35.6843532506146,129.472728808347,0.813,경북 경주시 양남면 읍천리 405-5,좌표 불일치 (0.81km)
트리탑,충청남도 논산시 연산면 선비로 380,36.22032065,127.191649,,,,,장소 미발견 (폐업/미등록 가능성)
파로호꽃섬,nan,38.11469506,127.984782,38.1191836037744,127.986886209363,0.532,강원특별자치도 양구군 양구읍 하리 570-1,좌표 불일치 (0.53km)
트리하우스 펜션,경기도 가평군 상면 수목원로 181-16,37.76211285,127.363964,37.8141572228603,127.47066740468263,11.019,경기 가평군 가평읍 하색리 770-1,좌표 오류 - 실제위치 11.0km 이격
파주나비나라박물관,경기도 파주시 광인사길 161,37.71485205,126.686912,,,,,장소 미발견 (폐업/미등록 가능성)
파트라슈,경기도 가평군 상면 축령로70번길 53,37.77811236,127.36201,,,,,장소 미발견 (폐업/미등록 가능성)
팔룡산돌탑입구공원,nan,35.22751188,128.592363,,,,,장소 미발견 (폐업/미등록 가능성)
팰리스1470 풀빌라펜션,경상남도 남해군 남면 남면로 1470,34.7487669,127.857064,,,,,장소 미발견 (폐업/미등록 가능성)
퍼스 펫 파크 경주점,경상북도 경주시 외외1길 108-3,35.83030859,129.167416,,,,,장소 미발견 (폐업/미등록 가능성)
퍼피21 애견펜션,충청남도 태안군 안면읍 해안관광로 954-51,36.57715672,126.321505,,,,,장소 미발견 (폐업/미등록 가능성)
퍼피누,경기도 양평군 청운면 가현길 372,37.52487191,127.726787,,,,,장소 미발견 (폐업/미등록 가능성)
퍼피과수원,경기도 양주시 만송로330번길 129,37.78865545,127.097501,,,,,장소 미발견 (폐업/미등록 가능성)
퍼피랜드,경상남도 거제시 거제면 외간옥산1길 147-32,34.87038981,128.569738,,,,,장소 미발견 (폐업/미등록 가능성)
퍼피킹덤,경기도 양주시 화합로1597번길 157,37.84300054,127.0797,,,,,장소 미발견 (폐업/미등록 가능성)
퍼피펜트하우스,경기도 고양시 일산동구 백마로 478,37.66096282,126.801455,,,,,장소 미발견 (폐업/미등록 가능성)
펜션앤호텔뷰,충청남도 보령시 천북면 홍보로 1061-175,36.50344382,126.483204,,,,,장소 미발견 (폐업/미등록 가능성)
펫마파크 수담,충청남도 천안시 동남구 통정10로 69-8,36.77410582,127.133961,,,,,장소 미발견 (폐업/미등록 가능성)
펫아일럿,경기도 성남시 수정구 수정로 192,37.44352127,127.141295,,,,,장소 미발견 (폐업/미등록 가능성)
펫카페37.5,경상북도 경산시 한의대로 50,35.8017783,128.775989,,,,,장소 미발견 (폐업/미등록 가능성)
펫크닉,경기도 고양시 덕양구 지축1로 39,37.64882934,126.914604,,,,,장소 미발견 (폐업/미등록 가능성)
펫톡,인천광역시 부평구 부평문화로 70-2,37.49388682,126.723969,,,,,장소 미발견 (폐업/미등록 가능성)
펫크닉,충청북도 청주시 흥덕구 강내면 월탄2길 65,36.61130848,127.351049,,,,,장소 미발견 (폐업/미등록 가능성)
펫트리파크 캠핑 카페,충청북도 충주시 앙성면 둔터로 625-31,37.10284967,127.71025,,,,,장소 미발견 (폐업/미등록 가능성)
평창바위공원,nan,37.37120187,128.410552,37.3764068443931,128.410613781273,0.579,강원특별자치도 평창군 평창읍 중리 8-3,좌표 불일치 (0.58km)
평생사랑해줄개 애견펜션,충청남도 태안군 고남면 구매길 72,36.42430037,126.429609,,,,,장소 미발견 (폐업/미등록 가능성)
포포즈 펫카페,충청남도 천안시 동남구 대흥로 324,36.81660603,127.150936,,,,,장소 미발견 (폐업/미등록 가능성)
퐁당 애견펜션,경기도 양평군 용문면 망능길 4,37.53271016,127.624802,,,,,장소 미발견 (폐업/미등록 가능성)
퐁당퐁당신산리,제주특별자치도 서귀포시 성산읍 신산중앙로18번길 40,33.37733491,126.874611,,,,,장소 미발견 (폐업/미등록 가능성)
푸댕,대구광역시 수성구 지범로 11,35.82917752,128.624132,,,,,장소 미발견 (폐업/미등록 가능성)
푸른달 하루,전라북도 전주시 완산구 동문길 57-8,35.81835106,127.150821,,,,,장소 미발견 (폐업/미등록 가능성)
푸른바다,전라남도 여수시 화양면 이대길 24-1,34.73294204,127.583139,34.762414667788,127.65619354729134,7.436,전남 여수시 학동 58-15,좌표 오류 - 실제위치 7.4km 이격
풀하우스,충청남도 태안군 고남면 장곡길 111,36.43944124,126.380832,36.50838712255926,126.33801451858477,8.569,충남 태안군 안면읍 승언리 339-425,좌표 오류 - 실제위치 8.6km 이격
프랜들리독 카페,경기도 여주시 가남읍 안금2길 41-90,37.22822191,127.595628,,,,,장소 미발견 (폐업/미등록 가능성)
프리독애견카페,서울특별시 동작구 여의대방로22바길 2,37.49756878,126.922925,,,,,장소 미발견 (폐업/미등록 가능성)
플럼,경기도 양평군 용문면 용문로 316-1,37.4816735,127.590414,,,,,장소 미발견 (폐업/미등록 가능성)
플로라620,경상남도 김해시 생림면 인제로 620,35.28061253,128.889026,,,,,장소 미발견 (폐업/미등록 가능성)
플레이크,경기도 용인시 기흥구 평촌2로2번길 11-17,37.28276304,127.152265,,,,,장소 미발견 (폐업/미등록 가능성)
피노지움,경기도 파주시 회동길 152,37.70890728,126.687563,,,,,장소 미발견 (폐업/미등록 가능성)
필리필리,서울특별시 강남구 학동로43길 38,37.51845805,127.038023,37.5240164626272,127.040087280035,0.644,서울 강남구 청담동 86-5,좌표 불일치 (0.64km)
피크닉애견카페,인천광역시 미추홀구 미추홀대로 533,37.44501583,126.678539,,,,,장소 미발견 (폐업/미등록 가능성)
하늘숲 글램핑 파크,경기도 가평군 북면 화악산로 254-38,37.90455082,127.562176,,,,,장소 미발견 (폐업/미등록 가능성)
하동십리벚꽃길,경상남도 하동군 화개면 화개로 142,35.19976932,127.630015,35.1933035859538,127.624708087214,0.866,경남 하동군 화개면 탑리,좌표 불일치 (0.87km)
하루강아지애견펜션,경기도 가평군 상면 수목원로386번길 12-17,37.74914076,127.352324,,,,,장소 미발견 (폐업/미등록 가능성)
하성근린공원 반려견놀이터,경기도 김포시 하성면 하성로 585,37.72436612,126.630123,,,,,장소 미발견 (폐업/미등록 가능성)
하슬라미술관,강원도 강릉시 강동면 율곡로 1441,37.0158683,129.007845,,,,,장소 미발견 (폐업/미등록 가능성)
하울링,경기도 화성시 동탄순환대로29길 64,37.20446097,127.109303,37.15911593188829,127.10432546952039,5.061,경기 화성시 동탄구 장지동 955-3,좌표 오류 - 실제위치 5.1km 이격
하우스오브바두기,경기도 김포시 양촌읍 김포한강4로 284,37.65195536,126.651744,,,,,장소 미발견 (폐업/미등록 가능성)
하우디,서울특별시 송파구 송이로 6,37.50395293,127.114997,37.5148358882089,127.149375668656,3.265,경기 하남시 감일동 189-10,좌표 오류 - 실제위치 3.3km 이격
하우스플랜트,경기도 하남시 덕풍북로6번길 14,37.54714021,127.199438,37.55729322931401,126.97741004049465,19.605,서울 중구 남창동 205-39,좌표 오류 - 실제위치 19.6km 이격
하트해변,nan,34.74622992,125.9024,34.7506873705002,125.894155246488,0.902,전남 신안군 비금면 내월리,좌표 불일치 (0.90km)
하하호호프렌드,경상남도 거제시 일운면 거제대로 1745-9,34.80885697,128.663868,,,,,장소 미발견 (폐업/미등록 가능성)
한국거래소 자본시장역사박물관,부산광역시 남구 문현금융로 40,35.14649173,129.065855,,,,,장소 미발견 (폐업/미등록 가능성)
한국교통대학교 박물관,충청북도 충주시 대소원면 대학로 50,36.9688467,127.872769,,,,,장소 미발견 (폐업/미등록 가능성)
한국수자원공사 대청댐물문화관,대전광역시 대덕구 대청로 618-136,36.47443489,127.481538,,,,,장소 미발견 (폐업/미등록 가능성)
한국지질자원연구원 지질박물관,대전광역시 유성구 과학로 124,36.38105757,127.357358,36.377554499614,127.362278240109,0.588,대전 유성구 가정동 30,좌표 불일치 (0.59km)
한국해양대학교박물관,부산광역시 영도구 태종로 727,35.07440691,129.087131,35.078517720104706,129.08028722464732,0.773,부산 영도구 동삼동 1156,좌표 불일치 (0.77km)
한그루,전라남도 장성군 북하면 남창로 4,35.42609249,126.84563,35.360608143317606,126.72683466305703,12.999,전남 장성군 서삼면 추암리 696,좌표 오류 - 실제위치 13.0km 이격
한극소리문화의전당,전라북도 전주시 덕진구 소리로 31,35.85477195,127.139328,,,,,장소 미발견 (폐업/미등록 가능성)
한남베르그,서울특별시 용산구 이태원로54길 58,37.53597243,127.000958,37.5250140093384,127.03690214726,3.396,서울 강남구 신사동 647-14,좌표 오류 - 실제위치 3.4km 이격
한마음공원,전라남도 영광군 홍농읍 홍농로7길 24,35.41576218,126.431561,35.4212241285999,126.428093790412,0.684,전남 영광군 홍농읍 성산리 743,좌표 불일치 (0.68km)
한미사진미술관,서울특별시 송파구 위례성대로 14,37.51659259,127.113956,37.58786366786638,126.9806706683131,14.173,서울 종로구 삼청동 5,좌표 오류 - 실제위치 14.2km 이격
한양여자대학교 미술관,서울특별시 성동구 살곶이길 200,37.55791759,127.049322,37.5511454409636,127.045452333957,0.827,서울 성동구 성수동1가 656-342,좌표 불일치 (0.83km)
한서대학교박물관,충청남도 서산시 해미면 한서1로 46,36.69071528,126.586965,36.6827674921652,126.610148946651,2.248,충남 예산군 덕산면 대치리 345-1,좌표 오류 - 실제위치 2.2km 이격
한식 토러스,인천광역시 강화군 길상면 길상로25번길 27,37.63514157,126.520195,,,,,장소 미발견 (폐업/미등록 가능성)
한스펌킨 쇼룸 카페,서울특별시 서초구 양재천로 97,37.47623988,127.03988,,,,,장소 미발견 (폐업/미등록 가능성)
해남공룡박물관,전라남도 해남군 황산면 공룡박물관길 234,34.58908867,126.442832,34.58991486657556,126.43720306852308,0.523,전남 해남군 황산면 우항리 191,좌표 불일치 (0.52km)
해바라기애견펜션,충청남도 태안군 안면읍 꽃지1길 185-12,36.50095591,126.339322,,,,,장소 미발견 (폐업/미등록 가능성)
해성 펜션,제주특별자치도 서귀포시 천제연로 131-8,33.25442464,126.419878,,,,,장소 미발견 (폐업/미등록 가능성)
해안성 펜션,제주특별자치도 서귀포시 태평로92번길 29,33.24179965,126.531984,,,,,장소 미발견 (폐업/미등록 가능성)
해운대영무파라드호텔 반려견전용층보유,부산광역시 해운대구 해운대해변로298번길 25,35.16089963,129.166482,,,,,장소 미발견 (폐업/미등록 가능성)
해품달,전라북도 전주시 완산구 은행로 93-3,35.81162831,127.153224,,,,,장소 미발견 (폐업/미등록 가능성)
핸디공방카페,부산광역시 부산진구 성지로114번길 66,35.18143482,129.054815,,,,,장소 미발견 (폐업/미등록 가능성)
해피투게독,전라남도 여수시 소호로 467-1,34.74465092,127.65216,,,,,장소 미발견 (폐업/미등록 가능성)
행복감,서울특별시 서대문구 연희로11가길 51,37.56634872,126.92755,,,,,장소 미발견 (폐업/미등록 가능성)
행복한정원 애견펜션,경기도 가평군 가평읍 분자골로 234,37.76115799,127.493389,,,,,장소 미발견 (폐업/미등록 가능성)
행촌미술관,전라남도 해남군 해남읍 해남로 45,34.57109724,126.61251,34.58749688260045,126.58151257810877,3.373,전남 해남군 해남읍 구교리 683-12,좌표 오류 - 실제위치 3.4km 이격
허브빌 펜션,경기도 포천시 영북면 산정호수로 868-24,38.07806915,127.321212,,,,,장소 미발견 (폐업/미등록 가능성)
허브아일랜드식물원,경기도 포천시 신북면 청신로947번길 35,37.96592581,127.131708,37.9740329179955,127.150233121794,1.857,경기 포천시 신북면 삼정리 148,좌표 오류 - 실제위치 1.9km 이격
헤이독,충청북도 청주시 상당구 성안로 50,36.63246253,127.488979,,,,,장소 미발견 (폐업/미등록 가능성)
헤이미쉬풀빌라,경상북도 경주시 새골1길 13-12,35.78863776,129.30744,,,,,장소 미발견 (폐업/미등록 가능성)
헤이블,경기도 고양시 일산동구 일산로286번길 7-10,37.66192598,126.786403,,,,,장소 미발견 (폐업/미등록 가능성)
헤이헤이,경기도 파주시 평화로 380,37.774583,126.740791,37.7828469375365,126.690283673158,4.533,경기 파주시 탄현면 성동리 703,좌표 오류 - 실제위치 4.5km 이격
현대어린이책미술관 MOKA,경기도 성남시 분당구 판교역로146번길 20,37.39279369,127.112017,,,,,장소 미발견 (폐업/미등록 가능성)
현대어린이책미술관 MOKA GARDEN,경기도 남양주시 다산순환로 50,37.61625793,127.152429,,,,,장소 미발견 (폐업/미등록 가능성)
호명펜션,경기도 가평군 청평면 상지로 279,37.76880353,127.479616,37.71865613354506,127.46098324563224,5.812,경기 가평군 청평면 호명리 190-2,좌표 오류 - 실제위치 5.8km 이격
화산라멘 멘야마쯔리 홍대점,서울특별시 마포구 와우산로 112,37.55314837,126.925909,,,,,장소 미발견 (폐업/미등록 가능성)
화성휴게소 반려견놀이터,경기도 화성시 팔탄면 서해안고속도로 301,37.14359049,126.879152,,,,,장소 미발견 (폐업/미등록 가능성)
화진포 역사안보전시관,강원도 고성군 거진읍 화진포길 280,38.47349115,128.441613,38.470942374252,128.436765885558,0.508,강원특별자치도 고성군 현내면 죽정리,좌표 불일치 (0.51km)
화엄사성보박물관,전라남도 구례군 마산면 화엄사로 539,35.25731602,127.49772,,,,,장소 미발견 (폐업/미등록 가능성)
화진포 생태박물관,강원도 고성군 거진읍 화진포길 278,38.47218738,128.443621,,,,,장소 미발견 (폐업/미등록 가능성)
회동저수지,부산광역시 금정구 오륜대로 145-107,35.25326244,129.107121,35.2478791691341,129.1229922530091,1.561,부산 금정구 오륜동 171,좌표 오류 - 실제위치 1.6km 이격
횡성호수길5코스,nan,37.54963406,128.062617,,,,,장소 미발견 (폐업/미등록 가능성)
휘닉스아일랜드콘도,제주특별자치도 서귀포시 성산읍 섭지코지로 107,33.42604238,126.926443,33.430317194429996,126.92937401739778,0.548,제주특별자치도 서귀포시 성산읍 고성리 127-2,좌표 불일치 (0.55km)
휴개소,전라북도 군산시 서수면 서라로 62,35.98939992,126.87145,36.018805169369195,126.79764003290015,7.401,전북특별자치도 군산시 나포면 서포리 406-13,좌표 오류 - 실제위치 7.4km 이격
휴원경펜션,강원도 평창군 대화면 금당계곡로 1151-1,37.51253614,128.390743,,,,,장소 미발견 (폐업/미등록 가능성)
흥업면반려견쉼터 아름들,nan,37.29566456,127.925142,,,,,장소 미발견 (폐업/미등록 가능성)
힐리언스 선마을 힐리펫룸,강원도 홍천군 서면 종자산길 122,37.65154223,127.630341,,,,,장소 미발견 (폐업/미등록 가능성)
힐링펫,부산광역시 기장군 장안읍 고무로 4,35.34801343,129.257109,,,,,장소 미발견 (폐업/미등록 가능성)
ban dog cafe,경기도 성남시 수정구 복정로 63-1,37.45867416,127.126491,,,,,장소 미발견 (폐업/미등록 가능성)
C LUNA,경기도 평택시 자유로14번길 21,36.99220071,127.091814,,,,,장소 미발견 (폐업/미등록 가능성)
Cafe0732,울산광역시 울주군 서생면 간절곶1길 25-6,35.35945547,129.359145,,,,,장소 미발견 (폐업/미등록 가능성)
Cafe109,경기도 수원시 권선구 효원로230번길 38,37.26107214,127.025896,37.3277502096056,127.013934622329,7.489,경기 수원시 장안구 상광교동 339-2,좌표 오류 - 실제위치 7.5km 이격
Cafe3535.1,제주특별자치도 제주시 조천읍 함덕2길 82,33.53920714,126.655634,,,,,장소 미발견 (폐업/미등록 가능성)
Coffee Puppy,경기도 의정부시 오목로225번길 24-12,37.74700828,127.098782,37.6572349357859,127.247870105842,16.483,경기 남양주시 호평동 189-5,좌표 오류 - 실제위치 16.5km 이격
DS애견동반카페,충청남도 천안시 동남구 병천면 유관순길 99,36.76093799,127.312933,,,,,장소 미발견 (폐업/미등록 가능성)
fondcoffee,서울특별시 마포구 동교로15길 32,37.5561191,126.914146,,,,,장소 미발견 (폐업/미등록 가능성)
H moment 펜션,부산광역시 해운대구 송정해변로 4,35.18127775,129.20534,,,,,장소 미발견 (폐업/미등록 가능성)
hek,경기도 파주시 탄현면 헤이리마을길 82-154,37.78801902,126.70161,,,,,장소 미발견 (폐업/미등록 가능성)
i like,경기도 구리시 검배로 28,37.59872353,127.142536,37.6254044119203,127.155446390266,3.177,경기 남양주시 다산동 6053,좌표 오류 - 실제위치 3.2km 이격
KAIST비전관,대전광역시 유성구 대학로 291,36.36828278,127.356982,36.3694335661502,127.362730880926,0.53,대전 유성구 구성동 23,좌표 불일치 (0.53km)
J카페,강원도 동해시 항골길 94,37.52579338,129.097541,37.44329422044395,129.16320395515064,10.85,강원특별자치도 삼척시 당저동 166-9,좌표 오류 - 실제위치 10.8km 이격
KT앤G 상상마당 춘천 아트센터,강원도 춘천시 스포츠타운길399번길 25,37.87361778,127.702092,,,,,장소 미발견 (폐업/미등록 가능성)
LUCE 카페,대구광역시 중구 동성로6길 58,35.86839484,128.598466,35.860474982663,128.505204567413,8.45,대구 달서구 이곡동 1316-18,좌표 오류 - 실제위치 8.5km 이격
OMW 애견카페,서울특별시 강서구 화곡로 194-26,37.54199949,126.842614,,,,,장소 미발견 (폐업/미등록 가능성)
SEOSUNYA,전라북도 전주시 완산구 동문길 19-6,35.81906484,127.15269,,,,,장소 미발견 (폐업/미등록 가능성)
SOS박물관,제주특별자치도 서귀포시 월드컵로 31,33.24706746,126.507363,,,,,장소 미발견 (폐업/미등록 가능성)
The Azit,경기도 부천시 양지남로 17,37.47108363,126.813693,37.5631950177971,126.995133041649,19.0,서울 중구 인현동2가 220-2,좌표 오류 - 실제위치 19.0km 이격
staywell cafe,서울특별시 마포구 백범로 152,37.54474774,126.948258,,,,,장소 미발견 (폐업/미등록 가능성)
WOOF,충청북도 청주시 서원구 남이면 2순환로 1652,36.59988529,127.462031,,,,,장소 미발견 (폐업/미등록 가능성)
YOLO오시개,부산광역시 사상구 가야대로366번길 10,35.15058874,129.012454,,,,,장소 미발견 (폐업/미등록 가능성)
